[ { "No": 0, "RevNo": [227], "NameMm": "လှည်းကူးဈေး", "TownMm": "လှည်းကူး", "RoadMm": "ရန်ကုန်-မန္တလေးလမ်း", "NameEng": "Hlegu Zay", "TownEng": "Hlegu", "RoadEng": "Yangon - Mandalay Rd", "Note": "1,44,45,107", "Latitude": 17.096711, "Longitude": 96.219153 }, { "No": 1, "RevNo": [226], "NameMm": "သဥ္ဇာဦး", "TownMm": "လှည်းကူး", "RoadMm": "ရန်ကုန်-မန္တလေးလမ်း", "NameEng": "Tin Zar Oo", "TownEng": "Hlegu", "RoadEng": "Yangon - Mandalay Rd", "Note": "1,44,45,107", "Latitude": 17.098503, "Longitude": 96.22345 }, { "No": 2, "RevNo": [225], "NameMm": "လှည်းကူးတာဆုံ", "TownMm": "လှည်းကူး", "RoadMm": "ရန်ကုန်-မန္တလေးလမ်း", "NameEng": "Hlegu Tar Sone", "TownEng": "Hlegu", "RoadEng": "Yangon - Mandalay Rd", "Note": "1,44,45,107", "Latitude": 17.099652, "Longitude": 96.226499 }, { "No": 3, "RevNo": [224], "NameMm": "ရေဆင်းလမ်း", "TownMm": "လှည်းကူး", "RoadMm": "ရန်ကုန်-မန္တလေးလမ်း", "NameEng": "Yay Sin", "TownEng": "Hlegu", "RoadEng": "Yangon - Mandalay Rd", "Note": "1,107", "Latitude": 17.100631, "Longitude": 96.229038 }, { "No": 4, "RevNo": [223], "NameMm": "ငှက်ပျောတော", "TownMm": "လှည်းကူး", "RoadMm": "ရန်ကုန်-မန္တလေးလမ်း", "NameEng": "nghaat pyaww taw", "TownEng": "Hlegu", "RoadEng": "Yangon - Mandalay Rd", "Note": "1,107", "Latitude": 17.102764, "Longitude": 96.23404 }, { "No": 5, "RevNo": [222], "NameMm": "မီးသတ်", "TownMm": "လှည်းကူး", "RoadMm": "ရန်ကုန်-မန္တလေးလမ်း", "NameEng": "Mee Thet", "TownEng": "Hlegu", "RoadEng": "Yangon - Mandalay Rd", "Note": "1,107", "Latitude": 17.10258, "Longitude": 96.234152 }, { "No": 6, "RevNo": [221], "NameMm": "၁၀၇ဂိတ်", "TownMm": "လှည်းကူး", "RoadMm": "ရန်ကုန်-မန္တလေးလမ်း", "NameEng": "107 Gate", "TownEng": "Hlegu", "RoadEng": "Yangon - Mandalay Rd", "Note": "1,107", "Latitude": 17.103426, "Longitude": 96.236403 }, { "No": 7, "RevNo": [220], "NameMm": "ရွာလယ်ကွေ့(ရှာမတွေ့)", "TownMm": "လှည်းကူး", "RoadMm": "ရန်ကုန်-မန္တလေးလမ်း", "NameEng": "Ywar Lae Kwae(Not Found)", "TownEng": "Hlegu", "RoadEng": "Yangon - Mandalay Rd", "Note": "1", "Latitude": 17.108273, "Longitude": 96.247352 }, { "No": 8, "RevNo": [219], "NameMm": "ဗောဓိပင်(ရှာမတွေ့)", "TownMm": "လှည်းကူး", "RoadMm": "ရန်ကုန်-မန္တလေးလမ်း", "NameEng": "bawdhi pain(Not Found)", "TownEng": "Hlegu", "RoadEng": "Yangon - Mandalay Rd", "Note": "1", "Latitude": 17.109593, "Longitude": 96.248805 }, { "No": 9, "RevNo": [218], "NameMm": "ပညာရေးကောလိပ်(ဆရာအတက်သင်)", "TownMm": "လှည်းကူး", "RoadMm": "ရန်ကုန်-မန္တလေးလမ်း", "NameEng": "panyarrayy kawliut( sarar a taat sain)", "TownEng": "Hlegu", "RoadEng": "Yangon - Mandalay Rd", "Note": "1", "Latitude": 17.1139346016341, "Longitude": 96.253875713488 }, { "No": 10, "RevNo": [217], "NameMm": "ဒရယ်ဖိုဆည်မြောင်း", "TownMm": "လှည်းကူး", "RoadMm": "ရန်ကုန်-မန္တလေးလမ်း", "NameEng": "d raal hpo Sal Myaung", "TownEng": "Hlegu", "RoadEng": "Yangon - Mandalay Rd", "Note": "1", "Latitude": 17.120083, "Longitude": 96.261459 }, { "No": 11, "RevNo": [216], "NameMm": "ပေါက်ကုန်းဘုန်းကြီးကျောင်း", "TownMm": "လှည်းကူး", "RoadMm": "ရန်ကုန်-မန္တလေးလမ်း", "NameEng": "Pauk Kone Phone Gyi Kyaung", "TownEng": "Hlegu", "RoadEng": "Yangon - Mandalay Rd", "Note": "1", "Latitude": 17.124432, "Longitude": 96.266712 }, { "No": 12, "RevNo": [215], "NameMm": "ဝါးတံတား", "TownMm": "ဇရပ်ကွင်း", "RoadMm": "ရန်ကုန်-မန္တလေးလမ်း", "NameEng": "War Tadar", "TownEng": "Zayat Kwang", "RoadEng": "Yangon - Mandalay Rd", "Note": "1", "Latitude": 17.12573, "Longitude": 96.268299 }, { "No": 13, "RevNo": [214], "NameMm": "ဝါးနက်ကုန်း", "TownMm": "ဇရပ်ကွင်း", "RoadMm": "ရန်ကုန်-မန္တလေးလမ်း", "NameEng": "War Net Kone", "TownEng": "Zayat Kwang", "RoadEng": "Yangon - Mandalay Rd", "Note": "1", "Latitude": 17.126785, "Longitude": 96.269561 }, { "No": 14, "RevNo": [213], "NameMm": "ရဲမွန်တပ်မြို့", "TownMm": "ဇရပ်ကွင်း", "RoadMm": "ရန်ကုန်-မန္တလေးလမ်း", "NameEng": "Ye Mon Tat Myo", "TownEng": "Zayat Kwang", "RoadEng": "Yangon - Mandalay Rd", "Note": "1", "Latitude": 17.134746, "Longitude": 96.289652 }, { "No": 15, "RevNo": [212], "NameMm": "လမ်းသစ်", "TownMm": "ဇရပ်ကွင်း", "RoadMm": "ရန်ကုန်-မန္တလေးလမ်း", "NameEng": "Lan Thit", "TownEng": "Zayat Kwang", "RoadEng": "Yangon - Mandalay Rd", "Note": "1", "Latitude": 17.135582, "Longitude": 96.291816 }, { "No": 16, "RevNo": [211], "NameMm": "လှည်းလမ်း", "TownMm": "ဇရပ်ကွင်း", "RoadMm": "ရန်ကုန်-မန္တလေးလမ်း", "NameEng": "Hle Lan", "TownEng": "Zayat Kwang", "RoadEng": "Yangon - Mandalay Rd", "Note": "1", "Latitude": 17.136172, "Longitude": 96.293124 }, { "No": 17, "RevNo": [210], "NameMm": "ကုန်းထိပ်", "TownMm": "ဇရပ်ကွင်း", "RoadMm": "ရန်ကုန်-မန္တလေးလမ်း", "NameEng": "Kone Htate", "TownEng": "Zayat Kwang", "RoadEng": "Yangon - Mandalay Rd", "Note": "1", "Latitude": 17.136618, "Longitude": 96.294019 }, { "No": 18, "RevNo": [209], "NameMm": "ရဲမွန်ဘုန်းကြီးကျောင်းရှေ့", "TownMm": "ဇရပ်ကွင်း", "RoadMm": "ရန်ကုန်-မန္တလေးလမ်း", "NameEng": "Ye Mon Phone Gyi Kyaung Shae", "TownEng": "Zayat Kwang", "RoadEng": "Yangon - Mandalay Rd", "Note": "1", "Latitude": 17.137283, "Longitude": 96.295193 }, { "No": 19, "RevNo": [208], "NameMm": "ကျောက်တလုံး", "TownMm": "ဇရပ်ကွင်း", "RoadMm": "ရန်ကုန်-မန္တလေးလမ်း", "NameEng": "Kyauk Ta Lone", "TownEng": "Zayat Kwang", "RoadEng": "Yangon - Mandalay Rd", "Note": "1", "Latitude": 17.140782, "Longitude": 96.301225 }, { "No": 20, "RevNo": [207], "NameMm": "စီအိုဒီကျောင်း", "TownMm": "ဇရပ်ကွင်း", "RoadMm": "ရန်ကုန်-မန္တလေးလမ်း", "NameEng": "COD Kyaung", "TownEng": "Zayat Kwang", "RoadEng": "Yangon - Mandalay Rd", "Note": "1", "Latitude": 17.142786, "Longitude": 96.304548 }, { "No": 21, "RevNo": [206], "NameMm": "စီအိုဒီဈေး", "TownMm": "ဇရပ်ကွင်း", "RoadMm": "ရန်ကုန်-မန္တလေးလမ်း", "NameEng": "COD Zay", "TownEng": "Zayat Kwang", "RoadEng": "Yangon - Mandalay Rd", "Note": "1", "Latitude": 17.144219, "Longitude": 96.30764 }, { "No": 22, "RevNo": [205], "NameMm": "၉၈၁", "TownMm": "ဇရပ်ကွင်း", "RoadMm": "ရန်ကုန်-မန္တလေးလမ်း", "NameEng": "981", "TownEng": "Zayat Kwang", "RoadEng": "Yangon - Mandalay Rd", "Note": "1", "Latitude": 17.145782, "Longitude": 96.311607 }, { "No": 23, "RevNo": [204], "NameMm": "ဆေးရုံဟောင်း", "TownMm": "ဇရပ်ကွင်း", "RoadMm": "ရန်ကုန်-မန္တလေးလမ်း", "NameEng": "Say Yon Haung", "TownEng": "Zayat Kwang", "RoadEng": "Yangon - Mandalay Rd", "Note": "1", "Latitude": 17.148689, "Longitude": 96.319031 }, { "No": 24, "RevNo": [203], "NameMm": "ဇရပ်ကွင်းသံလမ်း", "TownMm": "ဇရပ်ကွင်း", "RoadMm": "ရန်ကုန်-မန္တလေးလမ်း", "NameEng": "Zayat Kwang Than Lane", "TownEng": "Zayat Kwang", "RoadEng": "Yangon - Mandalay Rd", "Note": "1", "Latitude": 17.149271, "Longitude": 96.320436 }, { "No": 25, "RevNo": [202], "NameMm": "ဇရပ်ကွင်းလမ်းဆုံ", "TownMm": "ဇရပ်ကွင်း", "RoadMm": "အမှတ်(၂)လမ်းမကြီး", "NameEng": "Zayat Kwang Lane Sone", "TownEng": "Zayat Kwang", "RoadEng": "No(2) Main Rd", "Note": "1", "Latitude": 17.149809, "Longitude": 96.323012 }, { "No": 26, "RevNo": [201], "NameMm": "ဂန္ဓမာပေါက်", "TownMm": "ဇရပ်ကွင်း", "RoadMm": "အမှတ်(၂)လမ်းမကြီး", "NameEng": "Gan Da Mar Pauk", "TownEng": "Zayat Kwang", "RoadEng": "No(2) Main Rd", "Note": "1", "Latitude": 17.146721, "Longitude": 96.323296 }, { "No": 27, "RevNo": [200], "NameMm": "စမ်းရေပြာ", "TownMm": "ဇရပ်ကွင်း", "RoadMm": "အမှတ်(၂)လမ်းမကြီး", "NameEng": "SanYay Pyar ", "TownEng": "Zayat Kwang", "RoadEng": "No(2) Main Rd", "Note": "1", "Latitude": 17.142341, "Longitude": 96.323747 }, { "No": 28, "RevNo": [199], "NameMm": "ဆိုက်ကားဂိတ်", "TownMm": "ဇရပ်ကွင်း", "RoadMm": "အမှတ်(၂)လမ်းမကြီး", "NameEng": "Site Kar Gate", "TownEng": "Zayat Kwang", "RoadEng": "No(2) Main Rd", "Note": "1", "Latitude": 17.146721, "Longitude": 96.323296 }, { "No": 29, "RevNo": [198], "NameMm": "ဘုရားဂိတ်", "TownMm": "ဇရပ်ကွင်း", "RoadMm": "အမှတ်(၂)လမ်းမကြီး", "NameEng": "Phayar Gate", "TownEng": "Zayat Kwang", "RoadEng": "No(2) Main Rd", "Note": "1", "Latitude": 17.128616, "Longitude": 96.326316 }, { "No": 30, "RevNo": [197], "NameMm": "ရွာပေါက်", "TownMm": "ဇရပ်ကွင်း", "RoadMm": "အမှတ်(၂)လမ်းမကြီး", "NameEng": "Ywar Pauk", "TownEng": "Zayat Kwang", "RoadEng": "No(2) Main Rd", "Note": "1", "Latitude": 17.12613, "Longitude": 96.326061 }, { "No": 31, "RevNo": [196], "NameMm": "ဈေးရှေ့", "TownMm": "လှည်းကူး", "RoadMm": "အမှတ်(၂)လမ်းမကြီး", "NameEng": "Zay Shae", "TownEng": "Hlegu", "RoadEng": "No(2) Main Rd", "Note": "1", "Latitude": 17.123491, "Longitude": 96.325655 }, { "No": 32, "RevNo": [195], "NameMm": "သံလမ်း", "TownMm": "လှည်းကူး", "RoadMm": "အမှတ်(၂)လမ်းမကြီး", "NameEng": "Than Lan", "TownEng": "Hlegu", "RoadEng": "No(2) Main Rd", "Note": "1", "Latitude": 17.128616, "Longitude": 96.326316 }, { "No": 33, "RevNo": [194], "NameMm": "ဆေးခန်း", "TownMm": "လှည်းကူး", "RoadMm": "အမှတ်(၂)လမ်းမကြီး", "NameEng": "Say Khan", "TownEng": "Hlegu", "RoadEng": "No(2) Main Rd", "Note": "1", "Latitude": 17.117961, "Longitude": 96.324575 }, { "No": 34, "RevNo": [193], "NameMm": "ရွာလယ်", "TownMm": "လှည်းကူး", "RoadMm": "အမှတ်(၂)လမ်းမကြီး", "NameEng": "Ywar Lal", "TownEng": "Hlegu", "RoadEng": "No(2) Main Rd", "Note": "1", "Latitude": 17.116304, "Longitude": 96.324215 }, { "No": 35, "RevNo": [192], "NameMm": "လမ်းသစ်", "TownMm": "လှည်းကူး", "RoadMm": "အမှတ်(၂)လမ်းမကြီး", "NameEng": "Lan Thit", "TownEng": "Hlegu", "RoadEng": "No(2) Main Rd", "Note": "1", "Latitude": 17.113857, "Longitude": 96.323772 }, { "No": 36, "RevNo": [191], "NameMm": "အင်းတိုင်ဝန်ထမ်း", "TownMm": "လှည်းကူး", "RoadMm": "အမှတ်(၂)လမ်းမကြီး", "NameEng": "Inn Taing Win Htann", "TownEng": "Hlegu", "RoadEng": "No(2) Main Rd", "Note": "1", "Latitude": 17.111886, "Longitude": 96.323351 }, { "No": 37, "RevNo": [190], "NameMm": "အလယ်တန်းကျောင်းရှေ့", "TownMm": "လှည်းကူး", "RoadMm": "အမှတ်(၂)လမ်းမကြီး", "NameEng": "A Lal Tan Kyaung Shae", "TownEng": "Hlegu", "RoadEng": "No(2) Main Rd", "Note": "1", "Latitude": 17.108505, "Longitude": 96.322495 }, { "No": 38, "RevNo": [189], "NameMm": "ကျောက်စက်", "TownMm": "လှည်းကူး", "RoadMm": "အမှတ်(၂)လမ်းမကြီး", "NameEng": "Kyauk Set", "TownEng": "Hlegu", "RoadEng": "No(2) Main Rd", "Note": "1", "Latitude": 17.10076, "Longitude": 96.320974 }, { "No": 39, "RevNo": [188], "NameMm": "တလုတ်ကုန်း", "TownMm": "လှည်းကူး", "RoadMm": "အမှတ်(၂)လမ်းမကြီး", "NameEng": "Ta Loke Kone", "TownEng": "Hlegu", "RoadEng": "No(2) Main Rd", "Note": "1", "Latitude": 17.093376, "Longitude": 96.319453 }, { "No": 40, "RevNo": [187], "NameMm": "ဝါးရုံစွန်း", "TownMm": "လှည်းကူး", "RoadMm": "အမှတ်(၂)လမ်းမကြီး", "NameEng": "War Yon Sun", "TownEng": "Hlegu", "RoadEng": "No(2) Main Rd", "Note": "1", "Latitude": 17.086691, "Longitude": 96.318114 }, { "No": 41, "RevNo": [186], "NameMm": "ဆည်မြောင်း", "TownMm": "လှည်းကူး", "RoadMm": "အမှတ်(၂)လမ်းမကြီး", "NameEng": "Sal Myaung", "TownEng": "Hlegu", "RoadEng": "No(2) Main Rd", "Note": "1", "Latitude": 17.086691, "Longitude": 96.318114 }, { "No": 42, "RevNo": [185], "NameMm": "ဦးဖိုးကွေ့", "TownMm": "လှည်းကူး", "RoadMm": "အမှတ်(၂)လမ်းမကြီး", "NameEng": "U Phoe Kwae", "TownEng": "Hlegu", "RoadEng": "No(2) Main Rd", "Note": "1", "Latitude": 17.081254, "Longitude": 96.317042 }, { "No": 43, "RevNo": [184], "NameMm": "အနောက်ဇရပ်", "TownMm": "လှည်းကူး", "RoadMm": "အမှတ်(၂)လမ်းမကြီး", "NameEng": "A Nout Zayat", "TownEng": "Hlegu", "RoadEng": "No(2) Main Rd", "Note": "1", "Latitude": 17.07666, "Longitude": 96.315341 }, { "No": 44, "RevNo": [183], "NameMm": "ရွာဝင်ရေနံ", "TownMm": "လှည်းကူး", "RoadMm": "အမှတ်(၂)လမ်းမကြီး", "NameEng": "Ywar Win Yae Nan", "TownEng": "Hlegu", "RoadEng": "No(2) Main Rd", "Note": "1", "Latitude": 17.073021, "Longitude": 96.313769 }, { "No": 45, "RevNo": [182], "NameMm": "ရေအိုးစင်", "TownMm": "လှည်းကူး", "RoadMm": "အမှတ်(၂)လမ်းမကြီး", "NameEng": "Yae Oe Sin", "TownEng": "Hlegu", "RoadEng": "No(2) Main Rd", "Note": "1", "Latitude": 17.067461, "Longitude": 96.31133 }, { "No": 46, "RevNo": [181], "NameMm": "ဆားတလင်းစက်ရှေ့", "TownMm": "လှည်းကူး", "RoadMm": "အမှတ်(၂)လမ်းမကြီး", "NameEng": "Sar Ta Lin Set Shae", "TownEng": "Hlegu", "RoadEng": "No(2) Main Rd", "Note": "1", "Latitude": 17.066217, "Longitude": 96.310801 }, { "No": 47, "RevNo": [180], "NameMm": "ဆားတလင်းရွာလယ်", "TownMm": "လှည်းကူး", "RoadMm": "အမှတ်(၂)လမ်းမကြီး", "NameEng": "Sar Ta Lin Ywarlae", "TownEng": "Hlegu", "RoadEng": "No(2) Main Rd", "Note": "1,46", "Latitude": 17.063997, "Longitude": 96.309855 }, { "No": 48, "RevNo": [179], "NameMm": "ဆားတလင်းလမ်းဆုံ", "TownMm": "လှည်းကူး", "RoadMm": "အမှတ်(၂)လမ်းမကြီး", "NameEng": "Sar Ta Lin Lan Sone", "TownEng": "Hlegu", "RoadEng": "No(2) Main Rd", "Note": "1,46", "Latitude": 17.061048, "Longitude": 96.308556 }, { "No": 49, "RevNo": [178], "NameMm": "ဆားတလင်းကျောင်းရှေ့", "TownMm": "လှည်းကူး", "RoadMm": "အမှတ်(၂)လမ်းမကြီး", "NameEng": "Sar Ta Lin Kyaung Shae", "TownEng": "Hlegu", "RoadEng": "No(2) Main Rd", "Note": "1,46", "Latitude": 17.058461, "Longitude": 96.307327 }, { "No": 50, "RevNo": [177], "NameMm": "ဆားတလင်းပန်းခြံ", "TownMm": "လှည်းကူး", "RoadMm": "အမှတ်(၂)လမ်းမကြီး", "NameEng": "Sar Ta Lin Pan Chan", "TownEng": "Hlegu", "RoadEng": "No(2) Main Rd", "Note": "1,46", "Latitude": 17.053618, "Longitude": 96.306292 }, { "No": 51, "RevNo": [176], "NameMm": "ကြာကန်တံတား", "TownMm": "လှည်းကူး", "RoadMm": "အမှတ်(၂)လမ်းမကြီး", "NameEng": "Kyar Kan Tadar", "TownEng": "Hlegu", "RoadEng": "No(2) Main Rd", "Note": "1,46", "Latitude": 17.050238, "Longitude": 96.305577 }, { "No": 52, "RevNo": [175], "NameMm": "ငရုတ်ဖိုတံတား", "TownMm": "လှည်းကူး", "RoadMm": "အမှတ်(၂)လမ်းမကြီး", "NameEng": "Nga Yoke Bo Tadar", "TownEng": "Hlegu", "RoadEng": "No(2) Main Rd", "Note": "1,46", "Latitude": 17.042653, "Longitude": 96.30396 }, { "No": 53, "RevNo": [174], "NameMm": "ဘိုးတော်ပေါက်", "TownMm": "လှည်းကူး", "RoadMm": "အမှတ်(၂)လမ်းမကြီး", "NameEng": "Boe Taw Pauk", "TownEng": "Hlegu", "RoadEng": "No(2) Main Rd", "Note": "1,46", "Latitude": 17.040851, "Longitude": 96.303612 }, { "No": 54, "RevNo": [173], "NameMm": "သုံးသုံးလုံး", "TownMm": "လှည်းကူး", "RoadMm": "အမှတ်(၂)လမ်းမကြီး", "NameEng": "Thone Thone Lone", "TownEng": "Hlegu", "RoadEng": "No(2) Main Rd", "Note": "1,46", "Latitude": 17.037752, "Longitude": 96.30296 }, { "No": 55, "RevNo": [172], "NameMm": "ရွာအဝင်ရေကန်", "TownMm": "လှည်းကူး", "RoadMm": "အမှတ်(၂)လမ်းမကြီး", "NameEng": "Ywar A Win Yae Kan", "TownEng": "Hlegu", "RoadEng": "No(2) Main Rd", "Note": "1,46", "Latitude": 17.035219, "Longitude": 96.30242 }, { "No": 56, "RevNo": [171], "NameMm": "အထက်ရွာကျောင်းရှေ့", "TownMm": "လှည်းကူး", "RoadMm": "အမှတ်(၂)လမ်းမကြီး", "NameEng": "aahtaat rwar kyaungg shae", "TownEng": "Hlegu", "RoadEng": "No(2) Main Rd", "Note": "1,46", "Latitude": 17.033401, "Longitude": 96.302041 }, { "No": 57, "RevNo": [170], "NameMm": "သမဆိုင်", "TownMm": "လှည်းကူး", "RoadMm": "အမှတ်(၂)လမ်းမကြီး", "NameEng": "sam sine", "TownEng": "Hlegu", "RoadEng": "No(2) Main Rd", "Note": "1,46", "Latitude": 17.031985, "Longitude": 96.301744 }, { "No": 58, "RevNo": [169], "NameMm": "အထက်ရွာကျောင်း", "TownMm": "လှည်းကူး", "RoadMm": "အမှတ်(၂)လမ်းမကြီး", "NameEng": "aahtaat rwar kyaungg", "TownEng": "Hlegu", "RoadEng": "No(2) Main Rd", "Note": "1,46", "Latitude": 17.031006, "Longitude": 96.301553 }, { "No": 59, "RevNo": [168], "NameMm": "အထက်စက်", "TownMm": "လှည်းကူး", "RoadMm": "အမှတ်(၂)လမ်းမကြီး", "NameEng": "aahtai sine", "TownEng": "Hlegu", "RoadEng": "No(2) Main Rd", "Note": "1,46", "Latitude": 17.0295, "Longitude": 96.301411 }, { "No": 60, "RevNo": [167], "NameMm": "နှစ်ရွာကြားရေအိုးစင်", "TownMm": "လှည်းကူး", "RoadMm": "အမှတ်(၂)လမ်းမကြီး", "NameEng": "nhainn rwar kyarr Yae Oe Sin", "TownEng": "Hlegu", "RoadEng": "No(2) Main Rd", "Note": "1,46", "Latitude": 17.028436, "Longitude": 96.301313 }, { "No": 61, "RevNo": [166], "NameMm": "နွားခြံ", "TownMm": "လှည်းကူး", "RoadMm": "အမှတ်(၂)လမ်းမကြီး", "NameEng": "aout rwar riutsar", "TownEng": "Hlegu", "RoadEng": "No(2) Main Rd", "Note": "1,46", "Latitude": 17.019064, "Longitude": 96.297525 }, { "No": 62, "RevNo": [165], "NameMm": "အောက်ရွာရိပ်သာ", "TownMm": "လှည်းကူး", "RoadMm": "အမှတ်(၂)လမ်းမကြီး", "NameEng": "Auk Ywar Yeik Thar", "TownEng": "Hlegu", "RoadEng": "No(2) Main Rd", "Note": "1,46", "Latitude": 17.016041, "Longitude": 96.29703 }, { "No": 63, "RevNo": [164], "NameMm": "အောက်ရွာတံတား", "TownMm": "လှည်းကူး", "RoadMm": "အမှတ်(၂)လမ်းမကြီး", "NameEng": "Auk Ywar Tadar", "TownEng": "Hlegu", "RoadEng": "No(2) Main Rd", "Note": "1,46", "Latitude": 17.011984, "Longitude": 96.297629 }, { "No": 64, "RevNo": [163], "NameMm": "အောက်ရွာကျောင်း", "TownMm": "လှည်းကူး", "RoadMm": "အမှတ်(၂)လမ်းမကြီး", "NameEng": "Auk Ywar Kyaung", "TownEng": "Hlegu", "RoadEng": "No(2) Main Rd", "Note": "1,46", "Latitude": 17.011966, "Longitude": 96.297517 }, { "No": 65, "RevNo": [162], "NameMm": "အောက်ရွာရေအိုးစင်", "TownMm": "လှည်းကူး", "RoadMm": "အမှတ်(၂)လမ်းမကြီး", "NameEng": "Auk Ywar Yae Oe Sin", "TownEng": "Hlegu", "RoadEng": "No(2) Main Rd", "Note": "1,46", "Latitude": 17.008652, "Longitude": 96.29844 }, { "No": 66, "RevNo": [161], "NameMm": "အောက်စက်", "TownMm": "လှည်းကူး", "RoadMm": "အမှတ်(၂)လမ်းမကြီး", "NameEng": "Auk Set", "TownEng": "Hlegu", "RoadEng": "No(2) Main Rd", "Note": "1,46", "Latitude": 17.007145, "Longitude": 96.298873 }, { "No": 67, "RevNo": [160], "NameMm": "အောက်ရွာဆီဆိုင်", "TownMm": "လှည်းကူး", "RoadMm": "အမှတ်(၂)လမ်းမကြီး", "NameEng": "Auk Ywar Si Saing", "TownEng": "Hlegu", "RoadEng": "No(2) Main Rd", "Note": "1,46", "Latitude": 17.000491, "Longitude": 96.300892 }, { "No": 68, "RevNo": [159], "NameMm": "ဆည်မြောင်း", "TownMm": "အရှေ့ဒဂုံ", "RoadMm": "အမှတ်(၂)လမ်းမကြီး", "NameEng": "Sal Myaung", "TownEng": "East Dagon", "RoadEng": "No(2) Main Rd", "Note": "1,46", "Latitude": 16.997039, "Longitude": 96.300815 }, { "No": 69, "RevNo": [158], "NameMm": "နေလ", "TownMm": "အရှေ့ဒဂုံ", "RoadMm": "အမှတ်(၂)လမ်းမကြီး", "NameEng": "Nay La", "TownEng": "East Dagon", "RoadEng": "No(2) Main Rd", "Note": "1,46", "Latitude": 16.9943, "Longitude": 96.300775 }, { "No": 70, "RevNo": [157], "NameMm": "ဒေါပြားပေါက်", "TownMm": "အရှေ့ဒဂုံ", "RoadMm": "အမှတ်(၂)လမ်းမကြီး", "NameEng": "daw pyarr Pauk", "TownEng": "East Dagon", "RoadEng": "No(2) Main Rd", "Note": "1,46", "Latitude": 16.9900774868727, "Longitude": 96.3006381758976 }, { "No": 71, "RevNo": [156], "NameMm": "တပ်ပေါက်", "TownMm": "အရှေ့ဒဂုံ", "RoadMm": "အမှတ်(၂)လမ်းမကြီး", "NameEng": "Tat Pauk", "TownEng": "East Dagon", "RoadEng": "No(2) Main Rd", "Note": "1,46", "Latitude": 16.983938, "Longitude": 96.300582 }, { "No": 72, "RevNo": [155], "NameMm": "မီးစက်ပေါက်", "TownMm": "အရှေ့ဒဂုံ", "RoadMm": "အမှတ်(၂)လမ်းမကြီး", "NameEng": "meehcaat Pauk", "TownEng": "East Dagon", "RoadEng": "No(2) Main Rd", "Note": "1,46", "Latitude": 16.980958, "Longitude": 96.300479 }, { "No": 73, "RevNo": [154], "NameMm": "အောင်ကေသာအလယ်ပေါက်", "TownMm": "အရှေ့ဒဂုံ", "RoadMm": "အမှတ်(၂)လမ်းမကြီး", "NameEng": "aaung kay sar Alwal Pauk", "TownEng": "East Dagon", "RoadEng": "No(2) Main Rd", "Note": "1,46", "Latitude": 16.980964, "Longitude": 96.30032 }, { "No": 74, "RevNo": [153], "NameMm": "အောင်ကေသာပထမပေါက်", "TownMm": "အရှေ့ဒဂုံ", "RoadMm": "အမှတ်(၂)လမ်းမကြီး", "NameEng": "aaung kay sar pahtam Pauk", "TownEng": "East Dagon", "RoadEng": "No(2) Main Rd", "Note": "1,46", "Latitude": 16.977828, "Longitude": 96.300232 }, { "No": 75, "RevNo": [152], "NameMm": "သံလမ်းကွေ့", "TownMm": "အရှေ့ဒဂုံ", "RoadMm": "အမှတ်(၂)လမ်းမကြီး", "NameEng": "Than Lan Kway", "TownEng": "East Dagon", "RoadEng": "No(2) Main Rd", "Note": "1,46", "Latitude": 16.968019, "Longitude": 96.298852 }, { "No": 76, "RevNo": [151], "NameMm": "ကျောင်းလမ်း", "TownMm": "အရှေ့ဒဂုံ", "RoadMm": "အမှတ်(၂)လမ်းမကြီး", "NameEng": "Kyaung Lan", "TownEng": "East Dagon", "RoadEng": "No(2) Main Rd", "Note": "1,46", "Latitude": 16.965898, "Longitude": 96.29691 }, { "No": 77, "RevNo": [150], "NameMm": "ဘူတာ", "TownMm": "အရှေ့ဒဂုံ", "RoadMm": "အမှတ်(၂)လမ်းမကြီး", "NameEng": "Butar", "TownEng": "East Dagon", "RoadEng": "No(2) Main Rd", "Note": "1,46", "Latitude": 16.964213, "Longitude": 96.29525 }, { "No": 78, "RevNo": [149], "NameMm": "ဘောလုံးကွင်းထိပ်", "TownMm": "အရှေ့ဒဂုံ", "RoadMm": "အမှတ်(၂)လမ်းမကြီး", "NameEng": "bhawlonekwin htiut", "TownEng": "East Dagon", "RoadEng": "No(2) Main Rd", "Note": "1,46", "Latitude": 16.96343, "Longitude": 96.294478 }, { "No": 79, "RevNo": [148], "NameMm": "စက်ရုံရှေ့", "TownMm": "အရှေ့ဒဂုံ", "RoadMm": "အမှတ်(၂)လမ်းမကြီး", "NameEng": "hcaatrone Shae", "TownEng": "East Dagon", "RoadEng": "No(2) Main Rd", "Note": "1,46", "Latitude": 16.961906, "Longitude": 96.29402 }, { "No": 80, "RevNo": [147], "NameMm": "လေးထောင့်ကန်ဆိုင်ကွေ့", "TownMm": "အရှေ့ဒဂုံ", "RoadMm": "အမှတ်(၂)လမ်းမကြီး", "NameEng": "Lay Dauing Kan Site Kwae", "TownEng": "East Dagon", "RoadEng": "No(2) Main Rd", "Note": "1,46", "Latitude": 16.960636, "Longitude": 96.294866 }, { "No": 81, "RevNo": [146], "NameMm": "မိဘရိပ်", "TownMm": "အရှေ့ဒဂုံ", "RoadMm": "အမှတ်(၂)လမ်းမကြီး", "NameEng": "mibh riut", "TownEng": "East Dagon", "RoadEng": "No(2) Main Rd", "Note": "1,46,71,72", "Latitude": 16.95865, "Longitude": 96.293651 }, { "No": 82, "RevNo": [145], "NameMm": "ရိပ်သာ", "TownMm": "အရှေ့ဒဂုံ", "RoadMm": "အမှတ်(၂)လမ်းမကြီး", "NameEng": "Yeik Thar", "TownEng": "East Dagon", "RoadEng": "No(2) Main Rd", "Note": "1,46,71,72", "Latitude": 16.956206, "Longitude": 96.291514 }, { "No": 83, "RevNo": [144], "NameMm": "သမ", "TownMm": "အရှေ့ဒဂုံ", "RoadMm": "အမှတ်(၂)လမ်းမကြီး", "NameEng": "Thama", "TownEng": "East Dagon", "RoadEng": "No(2) Main Rd", "Note": "1,46,71,72", "Latitude": 16.953959, "Longitude": 96.289577 }, { "No": 84, "RevNo": [143], "NameMm": "ဦးခွေးပု", "TownMm": "အရှေ့ဒဂုံ", "RoadMm": "အမှတ်(၂)လမ်းမကြီး", "NameEng": "U Khway Pu", "TownEng": "East Dagon", "RoadEng": "No(2) Main Rd", "Note": "1,46,71,72", "Latitude": 16.951719, "Longitude": 96.28762 }, { "No": 85, "RevNo": [142], "NameMm": "မုန့်ဖို", "TownMm": "အရှေ့ဒဂုံ", "RoadMm": "အမှတ်(၂)လမ်းမကြီး", "NameEng": "Moke Pho", "TownEng": "East Dagon", "RoadEng": "No(2) Main Rd", "Note": "1,46,71,72", "Latitude": 16.950152, "Longitude": 96.28623 }, { "No": 86, "RevNo": [141], "NameMm": "သပြေခြံ", "TownMm": "တောင်ဒဂုံ", "RoadMm": "အမှတ်(၂)လမ်းမကြီး", "NameEng": "Tha Pyay Chan", "TownEng": "South Dagon", "RoadEng": "No(2) Main Rd", "Note": "1,46,71,72,81,97,118", "Latitude": 16.945633, "Longitude": 96.282274 }, { "No": 87, "RevNo": [140], "NameMm": "ဒီဇင်ဘာမုဒ်ဦး", "TownMm": "တောင်ဒဂုံ", "RoadMm": "အမှတ်(၂)လမ်းမကြီး", "NameEng": "dejainbhar mud u", "TownEng": "South Dagon", "RoadEng": "No(2) Main Rd", "Note": "1,46,71,72,81,97,118", "Latitude": 16.940024, "Longitude": 96.277615 }, { "No": 88, "RevNo": [139], "NameMm": "ဒီဇင်ဘာအလယ်ပေါက်", "TownMm": "တောင်ဒဂုံ", "RoadMm": "အမှတ်(၂)လမ်းမကြီး", "NameEng": "dejainbhar Alwal Pauk", "TownEng": "South Dagon", "RoadEng": "No(2) Main Rd", "Note": "1,46,71,72,81,97,118", "Latitude": 16.940123, "Longitude": 96.277515 }, { "No": 89, "RevNo": [138], "NameMm": "အအေးခန်း", "TownMm": "တောင်ဒဂုံ", "RoadMm": "အမှတ်(၂)လမ်းမကြီး", "NameEng": "A Aye Khan", "TownEng": "South Dagon", "RoadEng": "No(2) Main Rd", "Note": "1,46,71,72,81,97,118", "Latitude": 16.938784, "Longitude": 96.27635 }, { "No": 90, "RevNo": [137], "NameMm": "ယူနစ်(၃)", "TownMm": "တောင်ဒဂုံ", "RoadMm": "အမှတ်(၂)လမ်းမကြီး", "NameEng": "yuunait 3", "TownEng": "South Dagon", "RoadEng": "No(2) Main Rd", "Note": "1,46,71,72,81,97,118", "Latitude": 16.933624, "Longitude": 96.271864 }, { "No": 91, "RevNo": [136], "NameMm": "စီးပွားရေးတက္ကသိုလ်(ရွာသာကြီး)", "TownMm": "တောင်ဒဂုံ", "RoadMm": "အမှတ်(၂)လမ်းမကြီး", "NameEng": "See Pwar Yay Takke Tho", "TownEng": "South Dagon", "RoadEng": "No(2) Main Rd", "Note": "1,46,71,72,81,97,118", "Latitude": 16.929341, "Longitude": 96.268137 }, { "No": 92, "RevNo": [135], "NameMm": "ကြိုဆိုရေး", "TownMm": "တောင်ဒဂုံ", "RoadMm": "အမှတ်(၂)လမ်းမကြီး", "NameEng": "Kyo So Yay", "TownEng": "South Dagon", "RoadEng": "No(2) Main Rd", "Note": "1,46,71,72,81,97,118", "Latitude": 16.924552, "Longitude": 96.263906 }, { "No": 93, "RevNo": [134], "NameMm": "သစ်တော", "TownMm": "တောင်ဒဂုံ", "RoadMm": "အမှတ်(၂)လမ်းမကြီး", "NameEng": "saittaw", "TownEng": "South Dagon", "RoadEng": "No(2) Main Rd", "Note": "1,46,71,72,81,97,118", "Latitude": 16.913556, "Longitude": 96.254421 }, { "No": 94, "RevNo": [133], "NameMm": "လမ်းသစ်", "TownMm": "တောင်ဒဂုံ", "RoadMm": "အမှတ်(၂)လမ်းမကြီး", "NameEng": "Lan Thit", "TownEng": "South Dagon", "RoadEng": "No(2) Main Rd", "Note": "1,46,71,72,81,97,118", "Latitude": 16.909932, "Longitude": 96.25165 }, { "No": 95, "RevNo": [132], "NameMm": "ကျောင်းရှေ့", "TownMm": "တောင်ဒဂုံ", "RoadMm": "အမှတ်(၂)လမ်းမကြီး", "NameEng": "Kyaung Shae", "TownEng": "South Dagon", "RoadEng": "No(2) Main Rd", "Note": "1,46,71,72,81,97,118", "Latitude": 16.905369, "Longitude": 96.249057 }, { "No": 96, "RevNo": [131], "NameMm": "အကြော်တဲ", "TownMm": "တောင်ဒဂုံ", "RoadMm": "အမှတ်(၂)လမ်းမကြီး", "NameEng": "Ah Kyaw Tae", "TownEng": "South Dagon", "RoadEng": "No(2) Main Rd", "Note": "1,46,71,72,81,97,118", "Latitude": 16.902919, "Longitude": 96.247643 }, { "No": 97, "RevNo": [130], "NameMm": "ညောင်နှစ်ပင်", "TownMm": "တောင်ဒဂုံ", "RoadMm": "အမှတ်(၂)လမ်းမကြီး", "NameEng": "Nyaung Pin", "TownEng": "South Dagon", "RoadEng": "No(2) Main Rd", "Note": "1,46,71,72,81,97,118", "Latitude": 16.90035, "Longitude": 96.246138 }, { "No": 98, "RevNo": [129], "NameMm": "အကောက်ခွန်", "TownMm": "တောင်ဒဂုံ", "RoadMm": "အမှတ်(၂)လမ်းမကြီး", "NameEng": "A Kauk Khun", "TownEng": "South Dagon", "RoadEng": "No(2) Main Rd", "Note": "1,46,71,72,81,97,118", "Latitude": 16.902876, "Longitude": 96.247823 }, { "No": 99, "RevNo": [128], "NameMm": "လိုင်စင်ရုံး", "TownMm": "တောင်ဒဂုံ", "RoadMm": "အမှတ်(၂)လမ်းမကြီး", "NameEng": "Lai Sin Yone", "TownEng": "South Dagon", "RoadEng": "No(2) Main Rd", "Note": "1,46,71,72,81,97,118", "Latitude": 16.895216, "Longitude": 96.242676 }, { "No": 100, "RevNo": [127], "NameMm": "ဦးထွန်းမြတ်", "TownMm": "တောင်ဒဂုံ", "RoadMm": "အမှတ်(၂)လမ်းမကြီး", "NameEng": "U Tun Myat", "TownEng": "South Dagon", "RoadEng": "No(2) Main Rd", "Note": "1,46,71,72,81,97,118", "Latitude": 16.891853, "Longitude": 96.240208 }, { "No": 101, "RevNo": [126], "NameMm": "ကျောက်လမ်း", "TownMm": "တောင်ဒဂုံ", "RoadMm": "အမှတ်(၂)လမ်းမကြီး", "NameEng": "Kyaunk Lan", "TownEng": "South Dagon", "RoadEng": "No(2) Main Rd", "Note": "1,46,71,72,81,97,118", "Latitude": 16.884027, "Longitude": 96.234459 }, { "No": 102, "RevNo": [125], "NameMm": "တပ်ရင်း၃", "TownMm": "တောင်ဒဂုံ", "RoadMm": "အမှတ်(၂)လမ်းမကြီး", "NameEng": "Tat Yin 3", "TownEng": "South Dagon", "RoadEng": "No(2) Main Rd", "Note": "1,46,71,72,81,97,118", "Latitude": 16.878824, "Longitude": 96.230626 }, { "No": 103, "RevNo": [124], "NameMm": "ကွင်းဆင်းကျောင်း", "TownMm": "တောင်ဒဂုံ", "RoadMm": "အမှတ်(၂)လမ်းမကြီး", "NameEng": "kwinsainn kyaungg", "TownEng": "South Dagon", "RoadEng": "No(2) Main Rd", "Note": "1,46,71,72,81,97,118", "Latitude": 16.875191, "Longitude": 96.22795 }, { "No": 104, "RevNo": [123], "NameMm": "သင်တန်းကျောင်း", "TownMm": "တောင်ဒဂုံ", "RoadMm": "အမှတ်(၂)လမ်းမကြီး", "NameEng": "Thin Tan Kyaung", "TownEng": "South Dagon", "RoadEng": "No(2) Main Rd", "Note": "1,46,71,72,81,97,118", "Latitude": 16.871247, "Longitude": 96.224824 }, { "No": 105, "RevNo": [122], "NameMm": "နတ်စင်", "TownMm": "တောင်ဒဂုံ", "RoadMm": "အမှတ်(၂)လမ်းမကြီး", "NameEng": "Nat Sin", "TownEng": "South Dagon", "RoadEng": "No(2) Main Rd", "Note": "1,2,7.1,46,71,72,81,97,99,111.1,118", "Latitude": 16.868992, "Longitude": 96.222224 }, { "No": 106, "RevNo": [121], "NameMm": "တောင်မြောက်လမ်းဆုံ", "TownMm": "တောင်ဒဂုံ", "RoadMm": "အမှတ်(၂)လမ်းမကြီး", "NameEng": "Taung Myauk Lan Sone", "TownEng": "South Dagon", "RoadEng": "No(2) Main Rd", "Note": "1,2,7.1,46,71,72,81,97,99,111.1,118", "Latitude": 16.862582, "Longitude": 96.215981 }, { "No": 107, "RevNo": [120], "NameMm": "တံတားဖြူ", "TownMm": "တောင်ဒဂုံ", "RoadMm": "အမှတ်(၂)လမ်းမကြီး", "NameEng": "Tadar Phyu", "TownEng": "Thingangyun", "RoadEng": "No(2) Main Rd", "Note": "1,3,6,7,7.1,18,24,25,46,59,60,60.1,62,71,72,75,81,83,97,103,110,111,111.1,112,114,118,144", "Latitude": 16.857495, "Longitude": 96.212147 }, { "No": 108, "RevNo": [119], "NameMm": "ကားကြီးဂိတ်", "TownMm": "သင်္ဃန်းကျွန်း", "RoadMm": "အမှတ်(၂)လမ်းမကြီး", "NameEng": "Kar Gyi Gate", "TownEng": "Thingangyun", "RoadEng": "No(2) Main Rd", "Note": "1,3,6,7,7.1,18,24,25,46,59,60,60.1,62,71,72,75,81,83,97,103,110,111,111.1,112,113,114,118,144", "Latitude": 16.847974, "Longitude": 96.209174 }, { "No": 109, "RevNo": [118], "NameMm": "စံပြဈေး", "TownMm": "သင်္ဃန်းကျွန်း", "RoadMm": "လေးထောင့်ကန်လမ်း", "NameEng": "Sanpya Zay", "TownEng": "Thingangyun", "RoadEng": "Lay Daungkan Rd", "Note": "1,3,7,7.1,13,24,46,62,71,72,84,92,96,111,111.1,112,113,114,128", "Latitude": 16.84163, "Longitude": 96.204023 }, { "No": 110, "RevNo": [117], "NameMm": "ဘဝမြင့်", "TownMm": "သင်္ဃန်းကျွန်း", "RoadMm": "လေးထောင့်ကန်လမ်း", "NameEng": "Bawa Myint", "TownEng": "Thingangyun", "RoadEng": "Lay Daungkan Rd", "Note": "1,3,7,7.1,13,24,46,62,71,72,84,92,96,111,111.1,112,113,114,128", "Latitude": 16.837848, "Longitude": 96.20015 }, { "No": 111, "RevNo": [116], "NameMm": "ဘီအိုစီ", "TownMm": "သင်္ဃန်းကျွန်း", "RoadMm": "လေးထောင့်ကန်လမ်း", "NameEng": "BOC", "TownEng": "Thingangyun", "RoadEng": "Lay Daungkan Rd", "Note": "1,3,7,7.1,13,24,46,62,71,72,84,92,96,111,111.1,112,113,114,128", "Latitude": 16.832829, "Longitude": 96.194941 }, { "No": 112, "RevNo": [115], "NameMm": "ဘုရားလမ်း", "TownMm": "သင်္ဃန်းကျွန်း", "RoadMm": "လေးထောင့်ကန်လမ်း", "NameEng": "Paya Lan", "TownEng": "Thingangyun", "RoadEng": "Lay Daungkan Rd", "Note": "1,3,7,7.1,13,24,46,62,71,72,84,92,96,111,111.1,112,113,114,128", "Latitude": 16.831206, "Longitude": 96.193358 }, { "No": 113, "RevNo": [114], "NameMm": "ဇဝန", "TownMm": "သင်္ဃန်းကျွန်း", "RoadMm": "လေးထောင့်ကန်လမ်း", "NameEng": "Zawana", "TownEng": "Thingangyun", "RoadEng": "Lay Daungkan Rd", "Note": "1,3,7,7.1,13,24,46,62,71,72,84,92,111,111.1,112,113,114,128", "Latitude": 16.828313, "Longitude": 96.188462 }, { "No": 114, "RevNo": [113], "NameMm": "ဇဝန", "TownMm": "သင်္ဃန်းကျွန်း", "RoadMm": "လေးထောင့်ကန်လမ်း", "NameEng": "Zawana", "TownEng": "Thingangyun", "RoadEng": "Lay Daungkan Rd", "Note": "1,3,7,7.1,13,24,46,62,71,72,84,92,111,111.1,112,113,114,128", "Latitude": 16.827964336961415, "Longitude": 96.18832535812506 }, { "No": 115, "RevNo": [112], "NameMm": "ဘုရားလမ်း", "TownMm": "သင်္ဃန်းကျွန်း", "RoadMm": "လေးထောင့်ကန်လမ်း", "NameEng": "Paya Lan", "TownEng": "Thingangyun", "RoadEng": "Lay Daungkan Rd", "Note": "1,3,7,7.1,13,24,46,62,71,72,84,92,96,111,111.1,112,113,114,128", "Latitude": 16.830757391935574, "Longitude": 96.19330118961962 }, { "No": 116, "RevNo": [111], "NameMm": "ဘီအိုစီ", "TownMm": "သင်္ဃန်းကျွန်း", "RoadMm": "လေးထောင့်ကန်လမ်း", "NameEng": "BOC", "TownEng": "Thingangyun", "RoadEng": "Lay Daungkan Rd", "Note": "1,3,7,7.1,13,24,46,62,71,72,84,92,96,111,111.1,112,113,114,128", "Latitude": 16.832671, "Longitude": 96.195129 }, { "No": 117, "RevNo": [110], "NameMm": "ဘဝမြင့်", "TownMm": "သင်္ဃန်းကျွန်း", "RoadMm": "လေးထောင့်ကန်လမ်း", "NameEng": "Bawa Myint", "TownEng": "Thingangyun", "RoadEng": "Lay Daungkan Rd", "Note": "1,3,7,7.1,13,24,46,62,71,72,84,92,96,111,111.1,112,113,114,128", "Latitude": 16.837723, "Longitude": 96.200301 }, { "No": 118, "RevNo": [109], "NameMm": "စံပြဈေး", "TownMm": "သင်္ဃန်းကျွန်း", "RoadMm": "လေးထောင့်ကန်လမ်း", "NameEng": "Sanpya Zay", "TownEng": "Thingangyun", "RoadEng": "Lay Daungkan Rd", "Note": "1,3,7,7.1,13,24,46,62,71,72,84,92,96,111,111.1,112,113,114,128", "Latitude": 16.841435, "Longitude": 96.204153 }, { "No": 119, "RevNo": [108], "NameMm": "ကားကြီးဂိတ်", "TownMm": "သင်္ဃန်းကျွန်း", "RoadMm": "အမှတ်(၂)လမ်းမကြီး", "NameEng": "Kar Gyi Gate", "TownEng": "Thingangyun", "RoadEng": "No(2) Main Rd", "Note": "1,3,6,7,7.1,18,24,25,46,59,60,60.1,62,71,72,75,81,83,97,103,110,111,111.1,112,113,114,118,144", "Latitude": 16.847877, "Longitude": 96.209420 }, { "No": 120, "RevNo": [107], "NameMm": "တံတားဖြူ", "TownMm": "တောင်ဒဂုံ", "RoadMm": "အမှတ်(၂)လမ်းမကြီး", "NameEng": "Tadar Phyu", "TownEng": "Thingangyun", "RoadEng": "No(2) Main Rd", "Note": "1,3,6,7,7.1,18,24,25,46,59,60,60.1,62,71,72,75,81,83,97,103,110,111,111.1,112,114,118,144", "Latitude": 16.857365, "Longitude": 96.212283 }, { "No": 121, "RevNo": [106], "NameMm": "တောင်မြောက်လမ်းဆုံ", "TownMm": "တောင်ဒဂုံ", "RoadMm": "အမှတ်(၂)လမ်းမကြီး", "NameEng": "Taung Myauk Lan Sone", "TownEng": "South Dagon", "RoadEng": "No(2) Main Rd", "Note": "1,2,7.1,46,71,72,81,97,99,111.1,118", "Latitude": 16.862681, "Longitude": 96.216249 }, { "No": 122, "RevNo": [105], "NameMm": "နတ်စင်", "TownMm": "တောင်ဒဂုံ", "RoadMm": "အမှတ်(၂)လမ်းမကြီး", "NameEng": "Nat Sin", "TownEng": "South Dagon", "RoadEng": "No(2) Main Rd", "Note": "1,2,7.1,46,71,72,81,97,99,111.1,118", "Latitude": 16.86880434165994, "Longitude": 96.22224310065833 }, { "No": 123, "RevNo": [104], "NameMm": "သင်တန်းကျောင်း", "TownMm": "တောင်ဒဂုံ", "RoadMm": "အမှတ်(၂)လမ်းမကြီး", "NameEng": "Thin Tan Kyaung", "TownEng": "South Dagon", "RoadEng": "No(2) Main Rd", "Note": "1,46,71,72,81,97,118", "Latitude": 16.87114419481814, "Longitude": 96.22491869335583 }, { "No": 124, "RevNo": [103], "NameMm": "ကွင်းဆင်းကျောင်း", "TownMm": "တောင်ဒဂုံ", "RoadMm": "အမှတ်(၂)လမ်းမကြီး", "NameEng": "kwinsainn kyaungg", "TownEng": "South Dagon", "RoadEng": "No(2) Main Rd", "Note": "1,46,71,72,81,97,118", "Latitude": 16.875131, "Longitude": 96.228104 }, { "No": 125, "RevNo": [102], "NameMm": "တပ်ရင်း၃", "TownMm": "တောင်ဒဂုံ", "RoadMm": "အမှတ်(၂)လမ်းမကြီး", "NameEng": "Tat Yin 3", "TownEng": "South Dagon", "RoadEng": "No(2) Main Rd", "Note": "1,46,71,72,81,97,118", "Latitude": 16.878738, "Longitude": 96.230768 }, { "No": 126, "RevNo": [101], "NameMm": "ကျောက်လမ်း", "TownMm": "တောင်ဒဂုံ", "RoadMm": "အမှတ်(၂)လမ်းမကြီး", "NameEng": "Kyaunk Lan", "TownEng": "South Dagon", "RoadEng": "No(2) Main Rd", "Note": "1,46,71,72,81,97,118", "Latitude": 16.884420, "Longitude": 96.234940 }, { "No": 127, "RevNo": [100], "NameMm": "ဦးထွန်းမြတ်", "TownMm": "တောင်ဒဂုံ", "RoadMm": "အမှတ်(၂)လမ်းမကြီး", "NameEng": "U Tun Myat", "TownEng": "South Dagon", "RoadEng": "No(2) Main Rd", "Note": "1,46,71,72,81,97,118", "Latitude": 16.891769, "Longitude": 96.240330 }, { "No": 128, "RevNo": [99], "NameMm": "လိုင်စင်ရုံး", "TownMm": "တောင်ဒဂုံ", "RoadMm": "အမှတ်(၂)လမ်းမကြီး", "NameEng": "Lai Sin Yone", "TownEng": "South Dagon", "RoadEng": "No(2) Main Rd", "Note": "1,46,71,72,81,97,118", "Latitude": 16.895127, "Longitude": 96.242814 }, { "No": 129, "RevNo": [98], "NameMm": "အကောက်ခွန်", "TownMm": "တောင်ဒဂုံ", "RoadMm": "အမှတ်(၂)လမ်းမကြီး", "NameEng": "A Kauk Khun", "TownEng": "South Dagon", "RoadEng": "No(2) Main Rd", "Note": "1,46,71,72,81,97,118", "Latitude": 16.897226, "Longitude": 96.244401 }, { "No": 130, "RevNo": [97], "NameMm": "ညောင်နှစ်ပင်", "TownMm": "တောင်ဒဂုံ", "RoadMm": "အမှတ်(၂)လမ်းမကြီး", "NameEng": "Nyaung Pin", "TownEng": "South Dagon", "RoadEng": "No(2) Main Rd", "Note": "1,46,71,72,81,97,118", "Latitude": 16.900284, "Longitude": 96.246341 }, { "No": 131, "RevNo": [96], "NameMm": "အကြော်တဲ", "TownMm": "တောင်ဒဂုံ", "RoadMm": "အမှတ်(၂)လမ်းမကြီး", "NameEng": "Ah Kyaw Tae", "TownEng": "South Dagon", "RoadEng": "No(2) Main Rd", "Note": "1,46,71,72,81,97,118", "Latitude": 16.902876, "Longitude": 96.247823 }, { "No": 132, "RevNo": [95], "NameMm": "ကျောင်းရှေ့", "TownMm": "တောင်ဒဂုံ", "RoadMm": "အမှတ်(၂)လမ်းမကြီး", "NameEng": "Kyaung Shae", "TownEng": "South Dagon", "RoadEng": "No(2) Main Rd", "Note": "1,46,71,72,81,97,118", "Latitude": 16.905369, "Longitude": 96.249057 }, { "No": 133, "RevNo": [94], "NameMm": "လမ်းသစ်", "TownMm": "တောင်ဒဂုံ", "RoadMm": "အမှတ်(၂)လမ်းမကြီး", "NameEng": "Lan Thit", "TownEng": "South Dagon", "RoadEng": "No(2) Main Rd", "Note": "1,46,71,72,81,97,118", "Latitude": 16.909861, "Longitude": 96.251772 }, { "No": 134, "RevNo": [93], "NameMm": "သစ်တော", "TownMm": "တောင်ဒဂုံ", "RoadMm": "အမှတ်(၂)လမ်းမကြီး", "NameEng": "saittaw", "TownEng": "South Dagon", "RoadEng": "No(2) Main Rd", "Note": "1,46,71,72,81,97,118", "Latitude": 16.913474, "Longitude": 96.254538 }, { "No": 135, "RevNo": [92], "NameMm": "ကြိုဆိုရေး", "TownMm": "တောင်ဒဂုံ", "RoadMm": "အမှတ်(၂)လမ်းမကြီး", "NameEng": "Kyo So Yay", "TownEng": "South Dagon", "RoadEng": "No(2) Main Rd", "Note": "1,46,71,72,81,97,118", "Latitude": 16.924451, "Longitude": 96.264061 }, { "No": 136, "RevNo": [91], "NameMm": "စီးပွားရေးတက္ကသိုလ်(ရွာသာကြီး)", "TownMm": "တောင်ဒဂုံ", "RoadMm": "အမှတ်(၂)လမ်းမကြီး", "NameEng": "See Pwar Yay Takke Tho", "TownEng": "South Dagon", "RoadEng": "No(2) Main Rd", "Note": "1,46,71,72,81,97,118", "Latitude": 16.929341, "Longitude": 96.268137 }, { "No": 137, "RevNo": [90], "NameMm": "ယူနစ်(၃)", "TownMm": "တောင်ဒဂုံ", "RoadMm": "အမှတ်(၂)လမ်းမကြီး", "NameEng": "yuunait 3", "TownEng": "South Dagon", "RoadEng": "No(2) Main Rd", "Note": "1,46,71,72,81,97,118", "Latitude": 16.933535, "Longitude": 96.271971 }, { "No": 138, "RevNo": [89], "NameMm": "အအေးခန်း", "TownMm": "တောင်ဒဂုံ", "RoadMm": "အမှတ်(၂)လမ်းမကြီး", "NameEng": "A Aye Khan", "TownEng": "South Dagon", "RoadEng": "No(2) Main Rd", "Note": "1,46,71,72,81,97,118", "Latitude": 16.938784, "Longitude": 96.276350 }, { "No": 139, "RevNo": [88], "NameMm": "ဒီဇင်ဘာအလယ်ပေါက်", "TownMm": "တောင်ဒဂုံ", "RoadMm": "အမှတ်(၂)လမ်းမကြီး", "NameEng": "dejainbhar Alwal Pauk", "TownEng": "South Dagon", "RoadEng": "No(2) Main Rd", "Note": "1,46,71,72,81,97,118", "Latitude": 16.940024, "Longitude": 96.277615 }, { "No": 140, "RevNo": [87], "NameMm": "ဒီဇင်ဘာမုဒ်ဦး", "TownMm": "တောင်ဒဂုံ", "RoadMm": "အမှတ်(၂)လမ်းမကြီး", "NameEng": "dejainbhar mud u", "TownEng": "South Dagon", "RoadEng": "No(2) Main Rd", "Note": "1,46,71,72,81,97,118", "Latitude": 16.942595, "Longitude": 96.279833 }, { "No": 141, "RevNo": [86], "NameMm": "သပြေခြံ", "TownMm": "တောင်ဒဂုံ", "RoadMm": "အမှတ်(၂)လမ်းမကြီး", "NameEng": "Tha Pyay Chan", "TownEng": "South Dagon", "RoadEng": "No(2) Main Rd", "Note": "1,46,71,72,81,97,118", "Latitude": 16.945498, "Longitude": 96.282448 }, { "No": 142, "RevNo": [85], "NameMm": "မုန့်ဖို", "TownMm": "အရှေ့ဒဂုံ", "RoadMm": "အမှတ်(၂)လမ်းမကြီး", "NameEng": "Moke Pho", "TownEng": "East Dagon", "RoadEng": "No(2) Main Rd", "Note": "1,46,71,72", "Latitude": 16.950085, "Longitude": 96.286345 }, { "No": 143, "RevNo": [84], "NameMm": "ဦးခွေးပု", "TownMm": "အရှေ့ဒဂုံ", "RoadMm": "အမှတ်(၂)လမ်းမကြီး", "NameEng": "U Khway Pu", "TownEng": "East Dagon", "RoadEng": "No(2) Main Rd", "Note": "1,46,71,72", "Latitude": 16.951638, "Longitude": 96.287705 }, { "No": 144, "RevNo": [83], "NameMm": "သမ", "TownMm": "အရှေ့ဒဂုံ", "RoadMm": "အမှတ်(၂)လမ်းမကြီး", "NameEng": "Thama", "TownEng": "East Dagon", "RoadEng": "No(2) Main Rd", "Note": "1,46,71,72", "Latitude": 16.953893, "Longitude": 96.289646 }, { "No": 145, "RevNo": [82], "NameMm": "ရိပ်သာ", "TownMm": "အရှေ့ဒဂုံ", "RoadMm": "အမှတ်(၂)လမ်းမကြီး", "NameEng": "Yeik Thar", "TownEng": "East Dagon", "RoadEng": "No(2) Main Rd", "Note": "1,46,71,72", "Latitude": 16.956149, "Longitude": 96.291642 }, { "No": 146, "RevNo": [81], "NameMm": "မိဘရိပ်", "TownMm": "အရှေ့ဒဂုံ", "RoadMm": "အမှတ်(၂)လမ်းမကြီး", "NameEng": "mibh riut", "TownEng": "East Dagon", "RoadEng": "No(2) Main Rd", "Note": "1,46,71,72", "Latitude": 16.958572, "Longitude": 96.293756 }, { "No": 147, "RevNo": [80], "NameMm": "လေးထောင့်ကန်ဆိုင်ကွေ့", "TownMm": "အရှေ့ဒဂုံ", "RoadMm": "အမှတ်(၂)လမ်းမကြီး", "NameEng": "Lay Dauing Kan Site Kwae", "TownEng": "East Dagon", "RoadEng": "No(2) Main Rd", "Note": "1,46", "Latitude": 16.960636, "Longitude": 96.294866 }, { "No": 148, "RevNo": [79], "NameMm": "စက်ရုံရှေ့", "TownMm": "အရှေ့ဒဂုံ", "RoadMm": "အမှတ်(၂)လမ်းမကြီး", "NameEng": "hcaatrone Shae", "TownEng": "East Dagon", "RoadEng": "No(2) Main Rd", "Note": "1,46", "Latitude": 16.962033, "Longitude": 96.294138 }, { "No": 149, "RevNo": [78], "NameMm": "ဘောလုံးကွင်းထိပ်", "TownMm": "အရှေ့ဒဂုံ", "RoadMm": "အမှတ်(၂)လမ်းမကြီး", "NameEng": "bhawlonekwin htiut", "TownEng": "East Dagon", "RoadEng": "No(2) Main Rd", "Note": "1,46", "Latitude": 16.963339, "Longitude": 96.294547 }, { "No": 150, "RevNo": [77], "NameMm": "ဘူတာ", "TownMm": "အရှေ့ဒဂုံ", "RoadMm": "အမှတ်(၂)လမ်းမကြီး", "NameEng": "Butar", "TownEng": "East Dagon", "RoadEng": "No(2) Main Rd", "Note": "1,46", "Latitude": 16.964138, "Longitude": 96.295329 }, { "No": 151, "RevNo": [76], "NameMm": "ကျောင်းလမ်း", "TownMm": "အရှေ့ဒဂုံ", "RoadMm": "အမှတ်(၂)လမ်းမကြီး", "NameEng": "Kyaung Lan", "TownEng": "East Dagon", "RoadEng": "No(2) Main Rd", "Note": "1,46", "Latitude": 16.965823, "Longitude": 96.297003 }, { "No": 152, "RevNo": [75], "NameMm": "သံလမ်းကွေ့", "TownMm": "အရှေ့ဒဂုံ", "RoadMm": "အမှတ်(၂)လမ်းမကြီး", "NameEng": "Than Lan Kway", "TownEng": "East Dagon", "RoadEng": "No(2) Main Rd", "Note": "1,46", "Latitude": 16.967969, "Longitude": 96.298971 }, { "No": 153, "RevNo": [74], "NameMm": "အောင်ကေသာပထမပေါက်", "TownMm": "အရှေ့ဒဂုံ", "RoadMm": "အမှတ်(၂)လမ်းမကြီး", "NameEng": "aaung kay sar pahtam Pauk", "TownEng": "East Dagon", "RoadEng": "No(2) Main Rd", "Note": "1,46", "Latitude": 16.977818, "Longitude": 96.300372 }, { "No": 154, "RevNo": [73], "NameMm": "အောင်ကေသာအလယ်ပေါက်", "TownMm": "အရှေ့ဒဂုံ", "RoadMm": "အမှတ်(၂)လမ်းမကြီး", "NameEng": "aaung kay sar Alwal Pauk", "TownEng": "East Dagon", "RoadEng": "No(2) Main Rd", "Note": "1,46", "Latitude": 16.980958, "Longitude": 96.300479 }, { "No": 155, "RevNo": [72], "NameMm": "မီးစက်ပေါက်", "TownMm": "အရှေ့ဒဂုံ", "RoadMm": "အမှတ်(၂)လမ်းမကြီး", "NameEng": "meehcaat Pauk", "TownEng": "East Dagon", "RoadEng": "No(2) Main Rd", "Note": "1,46", "Latitude": 16.983938, "Longitude": 96.300582 }, { "No": 156, "RevNo": [71], "NameMm": "တပ်ပေါက်", "TownMm": "အရှေ့ဒဂုံ", "RoadMm": "အမှတ်(၂)လမ်းမကြီး", "NameEng": "Tat Pauk", "TownEng": "East Dagon", "RoadEng": "No(2) Main Rd", "Note": "1,46", "Latitude": 16.986914, "Longitude": 96.300653 }, { "No": 157, "RevNo": [70], "NameMm": "ဒေါပြားပေါက်", "TownMm": "အရှေ့ဒဂုံ", "RoadMm": "အမှတ်(၂)လမ်းမကြီး", "NameEng": "daw pyarr Pauk", "TownEng": "East Dagon", "RoadEng": "No(2) Main Rd", "Note": "1,46", "Latitude": 16.990085, "Longitude": 96.300760 }, { "No": 158, "RevNo": [69], "NameMm": "နေလ", "TownMm": "အရှေ့ဒဂုံ", "RoadMm": "အမှတ်(၂)လမ်းမကြီး", "NameEng": "Nay La", "TownEng": "East Dagon", "RoadEng": "No(2) Main Rd", "Note": "1,46", "Latitude": 16.994293, "Longitude": 96.300897 }, { "No": 159, "RevNo": [68], "NameMm": "ဆည်မြောင်း", "TownMm": "အရှေ့ဒဂုံ", "RoadMm": "အမှတ်(၂)လမ်းမကြီး", "NameEng": "Sal Myaung", "TownEng": "East Dagon", "RoadEng": "No(2) Main Rd", "Note": "1,46", "Latitude": 16.997041, "Longitude": 96.300932 }, { "No": 160, "RevNo": [67], "NameMm": "အောက်ရွာဆီဆိုင်", "TownMm": "လှည်းကူး", "RoadMm": "အမှတ်(၂)လမ်းမကြီး", "NameEng": "Auk Ywar Si Saing", "TownEng": "Hlegu", "RoadEng": "No(2) Main Rd", "Note": "1,46", "Latitude": 17.000494, "Longitude": 96.300997 }, { "No": 161, "RevNo": [66], "NameMm": "အောက်စက်", "TownMm": "လှည်းကူး", "RoadMm": "အမှတ်(၂)လမ်းမကြီး", "NameEng": "Auk Set", "TownEng": "Hlegu", "RoadEng": "No(2) Main Rd", "Note": "1,46", "Latitude": 17.007080, "Longitude": 96.298977 }, { "No": 162, "RevNo": [65], "NameMm": "အောက်ရွာရေအိုးစင်", "TownMm": "လှည်းကူး", "RoadMm": "အမှတ်(၂)လမ်းမကြီး", "NameEng": "Auk Ywar Yae Oe Sin", "TownEng": "Hlegu", "RoadEng": "No(2) Main Rd", "Note": "1,46", "Latitude": 17.008691, "Longitude": 96.298536 }, { "No": 163, "RevNo": [64], "NameMm": "အောက်ရွာကျောင်း", "TownMm": "လှည်းကူး", "RoadMm": "အမှတ်(၂)လမ်းမကြီး", "NameEng": "Auk Ywar Kyaung", "TownEng": "Hlegu", "RoadEng": "No(2) Main Rd", "Note": "1,46", "Latitude": 17.011984, "Longitude": 96.297629 }, { "No": 164, "RevNo": [63], "NameMm": "အောက်ရွာတံတား", "TownMm": "လှည်းကူး", "RoadMm": "အမှတ်(၂)လမ်းမကြီး", "NameEng": "Auk Ywar Tadar", "TownEng": "Hlegu", "RoadEng": "No(2) Main Rd", "Note": "1,46", "Latitude": 17.015348, "Longitude": 96.297218 }, { "No": 165, "RevNo": [62], "NameMm": "အောက်ရွာရိပ်သာ", "TownMm": "လှည်းကူး", "RoadMm": "အမှတ်(၂)လမ်းမကြီး", "NameEng": "Auk Ywar Yeik Thar", "TownEng": "Hlegu", "RoadEng": "No(2) Main Rd", "Note": "1,46", "Latitude": 17.016055, "Longitude": 96.297123 }, { "No": 166, "RevNo": [61], "NameMm": "နွားခြံ", "TownMm": "လှည်းကူး", "RoadMm": "အမှတ်(၂)လမ်းမကြီး", "NameEng": "aout rwar riutsar", "TownEng": "Hlegu", "RoadEng": "No(2) Main Rd", "Note": "1,46", "Latitude": 17.019043, "Longitude": 96.297627 }, { "No": 167, "RevNo": [60], "NameMm": "နှစ်ရွာကြားရေအိုးစင်", "TownMm": "လှည်းကူး", "RoadMm": "အမှတ်(၂)လမ်းမကြီး", "NameEng": "nhainn rwar kyarr Yae Oe Sin", "TownEng": "Hlegu", "RoadEng": "No(2) Main Rd", "Note": "1,46", "Latitude": 17.028426, "Longitude": 96.301409 }, { "No": 168, "RevNo": [59], "NameMm": "အထက်စက်", "TownMm": "လှည်းကူး", "RoadMm": "အမှတ်(၂)လမ်းမကြီး", "NameEng": "aahtai sine", "TownEng": "Hlegu", "RoadEng": "No(2) Main Rd", "Note": "1,46", "Latitude": 17.029492, "Longitude": 96.301504 }, { "No": 169, "RevNo": [58], "NameMm": "အထက်ရွာကျောင်း", "TownMm": "လှည်းကူး", "RoadMm": "အမှတ်(၂)လမ်းမကြီး", "NameEng": "aahtaat rwar kyaungg", "TownEng": "Hlegu", "RoadEng": "No(2) Main Rd", "Note": "1,46", "Latitude": 17.030999, "Longitude": 96.301647 }, { "No": 170, "RevNo": [57], "NameMm": "သမဆိုင်", "TownMm": "လှည်းကူး", "RoadMm": "အမှတ်(၂)လမ်းမကြီး", "NameEng": "sam sine", "TownEng": "Hlegu", "RoadEng": "No(2) Main Rd", "Note": "1,46", "Latitude": 17.031971, "Longitude": 96.301840 }, { "No": 171, "RevNo": [56], "NameMm": "အထက်ရွာကျောင်းရှေ့", "TownMm": "လှည်းကူး", "RoadMm": "အမှတ်(၂)လမ်းမကြီး", "NameEng": "aahtaat rwar kyaungg shae", "TownEng": "Hlegu", "RoadEng": "No(2) Main Rd", "Note": "1,46", "Latitude": 17.033385, "Longitude": 96.302133 }, { "No": 172, "RevNo": [55], "NameMm": "ရွာအဝင်ရေကန်", "TownMm": "လှည်းကူး", "RoadMm": "အမှတ်(၂)လမ်းမကြီး", "NameEng": "Ywar A Win Yae Kan", "TownEng": "Hlegu", "RoadEng": "No(2) Main Rd", "Note": "1,46", "Latitude": 17.035194, "Longitude": 96.302522 }, { "No": 173, "RevNo": [54], "NameMm": "သုံးသုံးလုံး", "TownMm": "လှည်းကူး", "RoadMm": "အမှတ်(၂)လမ်းမကြီး", "NameEng": "Thone Thone Lone", "TownEng": "Hlegu", "RoadEng": "No(2) Main Rd", "Note": "1,46", "Latitude": 17.037736, "Longitude": 96.303053 }, { "No": 174, "RevNo": [53], "NameMm": "ဘိုးတော်ပေါက်", "TownMm": "လှည်းကူး", "RoadMm": "အမှတ်(၂)လမ်းမကြီး", "NameEng": "Boe Taw Pauk", "TownEng": "Hlegu", "RoadEng": "No(2) Main Rd", "Note": "1,46", "Latitude": 17.040846, "Longitude": 96.303697 }, { "No": 175, "RevNo": [52], "NameMm": "ငရုတ်ဖိုတံတား", "TownMm": "လှည်းကူး", "RoadMm": "အမှတ်(၂)လမ်းမကြီး", "NameEng": "Nga Yoke Bo Tadar", "TownEng": "Hlegu", "RoadEng": "No(2) Main Rd", "Note": "1,46", "Latitude": 17.042622, "Longitude": 96.304073 }, { "No": 176, "RevNo": [51], "NameMm": "ကြာကန်တံတား", "TownMm": "လှည်းကူး", "RoadMm": "အမှတ်(၂)လမ်းမကြီး", "NameEng": "Kyar Kan Tadar", "TownEng": "Hlegu", "RoadEng": "No(2) Main Rd", "Note": "1,46", "Latitude": 17.050203, "Longitude": 96.305672 }, { "No": 177, "RevNo": [50], "NameMm": "ဆားတလင်းပန်းခြံ", "TownMm": "လှည်းကူး", "RoadMm": "အမှတ်(၂)လမ်းမကြီး", "NameEng": "Sar Ta Lin Pan Chan", "TownEng": "Hlegu", "RoadEng": "No(2) Main Rd", "Note": "1,46", "Latitude": 17.053583, "Longitude": 96.306387 }, { "No": 178, "RevNo": [49], "NameMm": "ဆားတလင်းကျောင်းရှေ့", "TownMm": "လှည်းကူး", "RoadMm": "အမှတ်(၂)လမ်းမကြီး", "NameEng": "Sar Ta Lin Kyaung Shae", "TownEng": "Hlegu", "RoadEng": "No(2) Main Rd", "Note": "1,46", "Latitude": 17.058431, "Longitude": 96.307454 }, { "No": 179, "RevNo": [48], "NameMm": "ဆားတလင်းလမ်းဆုံ", "TownMm": "လှည်းကူး", "RoadMm": "အမှတ်(၂)လမ်းမကြီး", "NameEng": "Sar Ta Lin Lan Sone", "TownEng": "Hlegu", "RoadEng": "No(2) Main Rd", "Note": "1,46", "Latitude": 17.061036, "Longitude": 96.308683 }, { "No": 180, "RevNo": [47], "NameMm": "ဆားတလင်းရွာလယ်", "TownMm": "လှည်းကူး", "RoadMm": "အမှတ်(၂)လမ်းမကြီး", "NameEng": "Sar Ta Lin Ywarlae", "TownEng": "Hlegu", "RoadEng": "No(2) Main Rd", "Note": "1,46", "Latitude": 17.063961, "Longitude": 96.309938 }, { "No": 181, "RevNo": [46], "NameMm": "ဆားတလင်းစက်ရှေ့", "TownMm": "လှည်းကူး", "RoadMm": "အမှတ်(၂)လမ်းမကြီး", "NameEng": "Sar Ta Lin Set Shae", "TownEng": "Hlegu", "RoadEng": "No(2) Main Rd", "Note": "1", "Latitude": 17.066217, "Longitude": 96.310801 }, { "No": 182, "RevNo": [45], "NameMm": "ရေအိုးစင်", "TownMm": "လှည်းကူး", "RoadMm": "အမှတ်(၂)လမ်းမကြီး", "NameEng": "Yae Oe Sin", "TownEng": "Hlegu", "RoadEng": "No(2) Main Rd", "Note": "1", "Latitude": 17.067415, "Longitude": 96.311443 }, { "No": 183, "RevNo": [44], "NameMm": "ရွာဝင်ရေနံ", "TownMm": "လှည်းကူး", "RoadMm": "အမှတ်(၂)လမ်းမကြီး", "NameEng": "Ywar Win Yae Nan", "TownEng": "Hlegu", "RoadEng": "No(2) Main Rd", "Note": "1", "Latitude": 17.072988, "Longitude": 96.313857 }, { "No": 184, "RevNo": [43], "NameMm": "အနောက်ဇရပ်", "TownMm": "လှည်းကူး", "RoadMm": "အမှတ်(၂)လမ်းမကြီး", "NameEng": "A Nout Zayat", "TownEng": "Hlegu", "RoadEng": "No(2) Main Rd", "Note": "1", "Latitude": 17.076614, "Longitude": 96.315435 }, { "No": 185, "RevNo": [42], "NameMm": "ဦးဖိုးကွေ့", "TownMm": "လှည်းကူး", "RoadMm": "အမှတ်(၂)လမ်းမကြီး", "NameEng": "U Phoe Kwae", "TownEng": "Hlegu", "RoadEng": "No(2) Main Rd", "Note": "1", "Latitude": 17.081242, "Longitude": 96.317176 }, { "No": 186, "RevNo": [41], "NameMm": "ဆည်မြောင်း", "TownMm": "လှည်းကူး", "RoadMm": "အမှတ်(၂)လမ်းမကြီး", "NameEng": "Sal Myaung", "TownEng": "Hlegu", "RoadEng": "No(2) Main Rd", "Note": "1", "Latitude": 17.083739, "Longitude": 96.317662 }, { "No": 187, "RevNo": [40], "NameMm": "ဝါးရုံစွန်း", "TownMm": "လှည်းကူး", "RoadMm": "အမှတ်(၂)လမ်းမကြီး", "NameEng": "War Yon Sun", "TownEng": "Hlegu", "RoadEng": "No(2) Main Rd", "Note": "1", "Latitude": 17.086702, "Longitude": 96.318245 }, { "No": 188, "RevNo": [39], "NameMm": "တလုတ်ကုန်း", "TownMm": "လှည်းကူး", "RoadMm": "အမှတ်(၂)လမ်းမကြီး", "NameEng": "Ta Loke Kone", "TownEng": "Hlegu", "RoadEng": "No(2) Main Rd", "Note": "1", "Latitude": 17.093341, "Longitude": 96.319605 }, { "No": 189, "RevNo": [38], "NameMm": "ကျောက်စက်", "TownMm": "လှည်းကူး", "RoadMm": "အမှတ်(၂)လမ်းမကြီး", "NameEng": "Kyauk Set", "TownEng": "Hlegu", "RoadEng": "No(2) Main Rd", "Note": "1", "Latitude": 17.100756, "Longitude": 96.321059 }, { "No": 190, "RevNo": [37], "NameMm": "အလယ်တန်းကျောင်းရှေ့", "TownMm": "လှည်းကူး", "RoadMm": "အမှတ်(၂)လမ်းမကြီး", "NameEng": "A Lal Tan Kyaung Shae", "TownEng": "Hlegu", "RoadEng": "No(2) Main Rd", "Note": "1", "Latitude": 17.108504, "Longitude": 96.322616 }, { "No": 191, "RevNo": [36], "NameMm": "အင်းတိုင်ဝန်ထမ်း", "TownMm": "လှည်းကူး", "RoadMm": "အမှတ်(၂)လမ်းမကြီး", "NameEng": "Inn Taing Win Htann", "TownEng": "Hlegu", "RoadEng": "No(2) Main Rd", "Note": "1", "Latitude": 17.111872, "Longitude": 96.323457 }, { "No": 192, "RevNo": [35], "NameMm": "လမ်းသစ်", "TownMm": "လှည်းကူး", "RoadMm": "အမှတ်(၂)လမ်းမကြီး", "NameEng": "Lan Thit", "TownEng": "Hlegu", "RoadEng": "No(2) Main Rd", "Note": "1", "Latitude": 17.113840, "Longitude": 96.323859 }, { "No": 193, "RevNo": [34], "NameMm": "ရွာလယ်", "TownMm": "လှည်းကူး", "RoadMm": "အမှတ်(၂)လမ်းမကြီး", "NameEng": "Ywar Lal", "TownEng": "Hlegu", "RoadEng": "No(2) Main Rd", "Note": "1", "Latitude": 17.116176, "Longitude": 96.324344 }, { "No": 194, "RevNo": [33], "NameMm": "ဆေးခန်း", "TownMm": "လှည်းကူး", "RoadMm": "အမှတ်(၂)လမ်းမကြီး", "NameEng": "Say Khan", "TownEng": "Hlegu", "RoadEng": "No(2) Main Rd", "Note": "1", "Latitude": 17.117950, "Longitude": 96.324689 }, { "No": 195, "RevNo": [32], "NameMm": "သံလမ်း", "TownMm": "လှည်းကူး", "RoadMm": "အမှတ်(၂)လမ်းမကြီး", "NameEng": "Than Lan", "TownEng": "Hlegu", "RoadEng": "No(2) Main Rd", "Note": "1", "Latitude": 17.119652, "Longitude": 96.325034 }, { "No": 196, "RevNo": [31], "NameMm": "ဈေးရှေ့", "TownMm": "လှည်းကူး", "RoadMm": "အမှတ်(၂)လမ်းမကြီး", "NameEng": "Zay Shae", "TownEng": "Hlegu", "RoadEng": "No(2) Main Rd", "Note": "1", "Latitude": 17.123491, "Longitude": 96.325655 }, { "No": 197, "RevNo": [30], "NameMm": "ရွာပေါက်", "TownMm": "ဇရပ်ကွင်း", "RoadMm": "အမှတ်(၂)လမ်းမကြီး", "NameEng": "Ywar Pauk", "TownEng": "Zayat Kwang", "RoadEng": "No(2) Main Rd", "Note": "1", "Latitude": 17.126107, "Longitude": 96.326191 }, { "No": 198, "RevNo": [29], "NameMm": "ဘုရားဂိတ်", "TownMm": "ဇရပ်ကွင်း", "RoadMm": "အမှတ်(၂)လမ်းမကြီး", "NameEng": "Phayar Gate", "TownEng": "Zayat Kwang", "RoadEng": "No(2) Main Rd", "Note": "1", "Latitude": 17.128609, "Longitude": 96.326467 }, { "No": 199, "RevNo": [28], "NameMm": "ဆိုက်ကားဂိတ်", "TownMm": "ဇရပ်ကွင်း", "RoadMm": "အမှတ်(၂)လမ်းမကြီး", "NameEng": "Site Kar Gate", "TownEng": "Zayat Kwang", "RoadEng": "No(2) Main Rd", "Note": "1", "Latitude": 17.136096, "Longitude": 96.325253 }, { "No": 200, "RevNo": [27], "NameMm": "စမ်းရေပြာ", "TownMm": "ဇရပ်ကွင်း", "RoadMm": "အမှတ်(၂)လမ်းမကြီး", "NameEng": "SanYay Pyar ", "TownEng": "Zayat Kwang", "RoadEng": "No(2) Main Rd", "Note": "1", "Latitude": 17.142344, "Longitude": 96.323896 }, { "No": 201, "RevNo": [26], "NameMm": "ဂန္ဓမာပေါက်", "TownMm": "ဇရပ်ကွင်း", "RoadMm": "အမှတ်(၂)လမ်းမကြီး", "NameEng": "Gan Da Mar Pauk", "TownEng": "Zayat Kwang", "RoadEng": "No(2) Main Rd", "Note": "1", "Latitude": 17.146744, "Longitude": 96.323429 }, { "No": 202, "RevNo": [25], "NameMm": "ဇရပ်ကွင်းလမ်းဆုံ", "TownMm": "ဇရပ်ကွင်း", "RoadMm": "အမှတ်(၂)လမ်းမကြီး", "NameEng": "Zayat Kwang Lane Sone", "TownEng": "Zayat Kwang", "RoadEng": "No(2) Main Rd", "Note": "1", "Latitude": 17.150360, "Longitude": 96.322422 }, { "No": 203, "RevNo": [24], "NameMm": "ဇရပ်ကွင်းသံလမ်း", "TownMm": "ဇရပ်ကွင်း", "RoadMm": "ရန်ကုန်-မန္တလေးလမ်း", "NameEng": "Zayat Kwang Than Lane", "TownEng": "Zayat Kwang", "RoadEng": "Yangon - Mandalay Rd", "Note": "1", "Latitude": 17.149439, "Longitude": 96.320308 }, { "No": 204, "RevNo": [23], "NameMm": "ဆေးရုံဟောင်း", "TownMm": "ဇရပ်ကွင်း", "RoadMm": "ရန်ကုန်-မန္တလေးလမ်း", "NameEng": "Say Yon Haung", "TownEng": "Zayat Kwang", "RoadEng": "Yangon - Mandalay Rd", "Note": "1", "Latitude": 17.148863, "Longitude": 96.318867 }, { "No": 205, "RevNo": [22], "NameMm": "၉၈၁", "TownMm": "ဇရပ်ကွင်း", "RoadMm": "ရန်ကုန်-မန္တလေးလမ်း", "NameEng": "981", "TownEng": "Zayat Kwang", "RoadEng": "Yangon - Mandalay Rd", "Note": "1", "Latitude": 17.145987, "Longitude": 96.311513 }, { "No": 206, "RevNo": [21], "NameMm": "စီအိုဒီဈေး", "TownMm": "ဇရပ်ကွင်း", "RoadMm": "ရန်ကုန်-မန္တလေးလမ်း", "NameEng": "COD Zay", "TownEng": "Zayat Kwang", "RoadEng": "Yangon - Mandalay Rd", "Note": "1", "Latitude": 17.144410, "Longitude": 96.307496 }, { "No": 207, "RevNo": [20], "NameMm": "စီအိုဒီကျောင်း", "TownMm": "ဇရပ်ကွင်း", "RoadMm": "ရန်ကုန်-မန္တလေးလမ်း", "NameEng": "COD Kyaung", "TownEng": "Zayat Kwang", "RoadEng": "Yangon - Mandalay Rd", "Note": "1", "Latitude": 17.142977, "Longitude": 96.304404 }, { "No": 208, "RevNo": [19], "NameMm": "ကျောက်တလုံး", "TownMm": "ဇရပ်ကွင်း", "RoadMm": "ရန်ကုန်-မန္တလေးလမ်း", "NameEng": "Kyauk Ta Lone", "TownEng": "Zayat Kwang", "RoadEng": "Yangon - Mandalay Rd", "Note": "1", "Latitude": 17.140969, "Longitude": 96.301084 }, { "No": 209, "RevNo": [18], "NameMm": "ရဲမွန်ဘုန်းကြီးကျောင်းရှေ့", "TownMm": "ဇရပ်ကွင်း", "RoadMm": "ရန်ကုန်-မန္တလေးလမ်း", "NameEng": "Ye Mon Phone Gyi Kyaung Shae", "TownEng": "Zayat Kwang", "RoadEng": "Yangon - Mandalay Rd", "Note": "1", "Latitude": 17.137453, "Longitude": 96.295043 }, { "No": 210, "RevNo": [17], "NameMm": "ကုန်းထိပ်", "TownMm": "ဇရပ်ကွင်း", "RoadMm": "ရန်ကုန်-မန္တလေးလမ်း", "NameEng": "Kone Htate", "TownEng": "Zayat Kwang", "RoadEng": "Yangon - Mandalay Rd", "Note": "1", "Latitude": 17.136789, "Longitude": 96.293874 }, { "No": 211, "RevNo": [16], "NameMm": "လှည်းလမ်း", "TownMm": "ဇရပ်ကွင်း", "RoadMm": "ရန်ကုန်-မန္တလေးလမ်း", "NameEng": "Hle Lan", "TownEng": "Zayat Kwang", "RoadEng": "Yangon - Mandalay Rd", "Note": "1", "Latitude": 17.136344, "Longitude": 96.292975 }, { "No": 212, "RevNo": [15], "NameMm": "လမ်းသစ်", "TownMm": "ဇရပ်ကွင်း", "RoadMm": "ရန်ကုန်-မန္တလေးလမ်း", "NameEng": "Lan Thit", "TownEng": "Zayat Kwang", "RoadEng": "Yangon - Mandalay Rd", "Note": "1", "Latitude": 17.135781, "Longitude": 96.291758 }, { "No": 213, "RevNo": [14], "NameMm": "ရဲမွန်တပ်မြို့", "TownMm": "ဇရပ်ကွင်း", "RoadMm": "ရန်ကုန်-မန္တလေးလမ်း", "NameEng": "Ye Mon Tat Myo", "TownEng": "Zayat Kwang", "RoadEng": "Yangon - Mandalay Rd", "Note": "1", "Latitude": 17.134902, "Longitude": 96.289565 }, { "No": 214, "RevNo": [13], "NameMm": "ဝါးနက်ကုန်း", "TownMm": "ဇရပ်ကွင်း", "RoadMm": "ရန်ကုန်-မန္တလေးလမ်း", "NameEng": "War Net Kone", "TownEng": "Zayat Kwang", "RoadEng": "Yangon - Mandalay Rd", "Note": "1", "Latitude": 17.126929, "Longitude": 96.269382 }, { "No": 215, "RevNo": [12], "NameMm": "ဝါးတံတား", "TownMm": "ဇရပ်ကွင်း", "RoadMm": "ရန်ကုန်-မန္တလေးလမ်း", "NameEng": "War Tadar", "TownEng": "Zayat Kwang", "RoadEng": "Yangon - Mandalay Rd", "Note": "1", "Latitude": 17.125822, "Longitude": 96.268049 }, { "No": 216, "RevNo": [11], "NameMm": "ပေါက်ကုန်းဘုန်းကြီးကျောင်း", "TownMm": "လှည်းကူး", "RoadMm": "ရန်ကုန်-မန္တလေးလမ်း", "NameEng": "Pauk Kone Phone Gyi Kyaung", "TownEng": "Hlegu", "RoadEng": "Yangon - Mandalay Rd", "Note": "1", "Latitude": 17.124572, "Longitude": 96.266547 }, { "No": 217, "RevNo": [10], "NameMm": "ဒရယ်ဖိုဆည်မြောင်း", "TownMm": "လှည်းကူး", "RoadMm": "ရန်ကုန်-မန္တလေးလမ်း", "NameEng": "d raal hpo Sal Myaung", "TownEng": "Hlegu", "RoadEng": "Yangon - Mandalay Rd", "Note": "1", "Latitude": 17.120243, "Longitude": 96.261341 }, { "No": 218, "RevNo": [9], "NameMm": "ပညာရေးကောလိပ်(ဆရာအတက်သင်)", "TownMm": "လှည်းကူး", "RoadMm": "ရန်ကုန်-မန္တလေးလမ်း", "NameEng": "panyarrayy kawliut( sarar a taat sain)", "TownEng": "Hlegu", "RoadEng": "Yangon - Mandalay Rd", "Note": "1", "Latitude": 17.113740, "Longitude": 96.253460 }, { "No": 219, "RevNo": [8], "NameMm": "ဗောဓိပင်(ရှာမတွေ့)", "TownMm": "လှည်းကူး", "RoadMm": "ရန်ကုန်-မန္တလေးလမ်း", "NameEng": "bawdhi pain(Not Found)", "TownEng": "Hlegu", "RoadEng": "Yangon - Mandalay Rd", "Note": "1", "Latitude": 17.109728, "Longitude": 96.248672 }, { "No": 220, "RevNo": [7], "NameMm": "ရွာလယ်ကွေ့(ရှာမတွေ့)", "TownMm": "လှည်းကူး", "RoadMm": "ရန်ကုန်-မန္တလေးလမ်း", "NameEng": "Ywar Lae Kwae(Not Found)", "TownEng": "Hlegu", "RoadEng": "Yangon - Mandalay Rd", "Note": "1", "Latitude": 17.108406, "Longitude": 96.247121 }, { "No": 221, "RevNo": [6], "NameMm": "၁၀၇ဂိတ်", "TownMm": "လှည်းကူး", "RoadMm": "ရန်ကုန်-မန္တလေးလမ်း", "NameEng": "107 Gate", "TownEng": "Hlegu", "RoadEng": "Yangon - Mandalay Rd", "Note": "1,107", "Latitude": 17.103616, "Longitude": 96.236271 }, { "No": 222, "RevNo": [5], "NameMm": "မီးသတ်", "TownMm": "လှည်းကူး", "RoadMm": "ရန်ကုန်-မန္တလေးလမ်း", "NameEng": "Mee Thet", "TownEng": "Hlegu", "RoadEng": "Yangon - Mandalay Rd", "Note": "1,107", "Latitude": 17.102764, "Longitude": 96.234040 }, { "No": 223, "RevNo": [4], "NameMm": "ငှက်ပျောတော", "TownMm": "လှည်းကူး", "RoadMm": "ရန်ကုန်-မန္တလေးလမ်း", "NameEng": "nghaat pyaww taw", "TownEng": "Hlegu", "RoadEng": "Yangon - Mandalay Rd", "Note": "1,107", "Latitude": 17.101730, "Longitude": 96.231311 }, { "No": 224, "RevNo": [3], "NameMm": "ရေဆင်းလမ်း", "TownMm": "လှည်းကူး", "RoadMm": "ရန်ကုန်-မန္တလေးလမ်း", "NameEng": "Yay Sin", "TownEng": "Hlegu", "RoadEng": "Yangon - Mandalay Rd", "Note": "1,107", "Latitude": 17.100749, "Longitude": 96.228785 }, { "No": 225, "RevNo": [2], "NameMm": "လှည်းကူးတာဆုံ", "TownMm": "လှည်းကူး", "RoadMm": "ရန်ကုန်-မန္တလေးလမ်း", "NameEng": "Hlegu Tar Sone", "TownEng": "Hlegu", "RoadEng": "Yangon - Mandalay Rd", "Note": "1,44,45,107", "Latitude": 17.099393, "Longitude": 96.225169 }, { "No": 226, "RevNo": [1], "NameMm": "သဥ္ဇာဦး", "TownMm": "လှည်းကူး", "RoadMm": "ရန်ကုန်-မန္တလေးလမ်း", "NameEng": "Tin Zar Oo", "TownEng": "Hlegu", "RoadEng": "Yangon - Mandalay Rd", "Note": "1,44,45,107", "Latitude": 17.098677, "Longitude": 96.223335 }, { "No": 227, "RevNo": [0], "NameMm": "လှည်းကူးဈေး", "TownMm": "လှည်းကူး", "RoadMm": "ရန်ကုန်-မန္တလေးလမ်း", "NameEng": "Hlegu Zay", "TownEng": "Hlegu", "RoadEng": "Yangon - Mandalay Rd", "Note": "1,44,45,107", "Latitude": 17.096869, "Longitude": 96.218970 }, { "No": 228, "RevNo": [355], "NameMm": "အောင်မင်္ဂလာအဝေးပြေး(ကားဝင်း)", "TownMm": "မြောက်ဥက္ကလာပ", "RoadMm": "အင်းဝလမ်း", "NameEng": "Aung Mingalar A Way Paya(Inside)", "TownEng": "North Oakkalapa", "RoadEng": "Inn Wa Rd", "Note": "2,11,115,119,136", "Latitude": 16.933985, "Longitude": 96.158817 }, { "No": 229, "RevNo": [354], "NameMm": "အောင်မင်္ဂလာအဝေးပြေးထိပ်", "TownMm": "မြောက်ဥက္ကလာပ", "RoadMm": "သုဓမ္မာလမ်း", "NameEng": "Aung Mingalar A Way Paya Htate", "TownEng": "North Oakkalapa", "RoadEng": "Thudamma Rd", "Note": "2,11,17,18,32,35,42,66,92,93,115,116,119,136,138", "Latitude": 16.929991, "Longitude": 96.154568 }, { "No": 230, "RevNo": [353], "NameMm": "ဓမ္မာရုံ", "TownMm": "မြောက်ဥက္ကလာပ", "RoadMm": "သုဓမ္မာလမ်း", "NameEng": "Dhama Yon", "TownEng": "North Oakkalapa", "RoadEng": "Thudamma Rd", "Note": "2,17,18,32,35,42,66,92,93,115,116,119,138", "Latitude": 16.923444, "Longitude": 96.158712 }, { "No": 231, "RevNo": [352,1267], "NameMm": "၆ကွေ့", "TownMm": "မြောက်ဥက္ကလာပ", "RoadMm": "သုဓမ္မာလမ်း", "NameEng": "6 Kwae", "TownEng": "North Oakkalapa", "RoadEng": "Thudamma Rd", "Note": "2,16,18,19,32,35,36,42,64,64.1,66,92,93,115,116,119,138", "Latitude": 16.9176380538303, "Longitude": 96.1633166771158 }, { "No": 232, "RevNo": [351], "NameMm": "ဧရာ", "TownMm": "မြောက်ဥက္ကလာပ", "RoadMm": "သုဓမ္မာလမ်း", "NameEng": "AyeYar Gate", "TownEng": "North Oakkalapa", "RoadEng": "Thudamma Rd", "Note": "2,16,18,19,32,35,36,42,64,64.1,66,92,93,115,116,119", "Latitude": 16.916925, "Longitude": 96.163666 }, { "No": 233, "RevNo": [350], "NameMm": "ကန်သာယာလမ်းဆုံ", "TownMm": "မြောက်ဥက္ကလာပ", "RoadMm": "သုဓမ္မာလမ်း", "NameEng": "Kan Tharyar Lan Sone", "TownEng": "North Oakkalapa", "RoadEng": "Thudamma Rd", "Note": "2,16,18,19,32,35,36,42,64,64.1,66,92,93,115,116,119", "Latitude": 16.9140240986923, "Longitude": 96.1648524393287 }, { "No": 234, "RevNo": [349], "NameMm": "ဈဈေး", "TownMm": "မြောက်ဥက္ကလာပ", "RoadMm": "ခေမာသီလမ်း", "NameEng": "Za-Myin-Zaw Zay", "TownEng": "North Oakkalapa", "RoadEng": "Khaymar Thi Rd", "Note": "2,15,16,36,64.1,92,137", "Latitude": 16.911916400469, "Longitude": 96.1621309609913 }, { "No": 235, "RevNo": [348], "NameMm": "ရုပ်ရှင်ရုံ", "TownMm": "မြောက်ဥက္ကလာပ", "RoadMm": "ခေမာသီလမ်း", "NameEng": "Yoke Shin Yon", "TownEng": "North Oakkalapa", "RoadEng": "Khaymar Thi Rd", "Note": "2,15,16,36,64.1,92,137", "Latitude": 16.911382, "Longitude": 96.160488 }, { "No": 236, "RevNo": [347], "NameMm": "နွယ်သာဂီ", "TownMm": "မြောက်ဥက္ကလာပ", "RoadMm": "ခေမာသီလမ်း", "NameEng": "Nwe Thar Gi", "TownEng": "North Oakkalapa", "RoadEng": "Khaymar Thi Rd", "Note": "2,15,16,36,64.1,92,137", "Latitude": 16.909763, "Longitude": 96.156579 }, { "No": 237, "RevNo": [346], "NameMm": "မြရတနာ", "TownMm": "မြောက်ဥက္ကလာပ", "RoadMm": "ခေမာသီလမ်း", "NameEng": "Mya Yadanar", "TownEng": "North Oakkalapa", "RoadEng": "Khaymar Thi Rd", "Note": "2,15,16,36,64.1,92,137", "Latitude": 16.908261, "Longitude": 96.155262 }, { "No": 238, "RevNo": [345], "NameMm": "ရုံး", "TownMm": "မြောက်ဥက္ကလာပ", "RoadMm": "ခေမာသီလမ်း", "NameEng": "Yone", "TownEng": "North Oakkalapa", "RoadEng": "Khaymar Thi Rd", "Note": "2,15,16,36,64.1,92,137", "Latitude": 16.905938, "Longitude": 96.154596 }, { "No": 239, "RevNo": [344], "NameMm": "ဥက္ကာ(ဆေး-၂)", "TownMm": "မြောက်ဥက္ကလာပ", "RoadMm": "ခေမာသီလမ်း", "NameEng": "Oakkar", "TownEng": "North Oakkalapa", "RoadEng": "Khaymar Thi Rd", "Note": "2,15,16,36,64.1,92,137", "Latitude": 16.9034563921418, "Longitude": 96.1544757325473 }, { "No": 240, "RevNo": [343], "NameMm": "မေဓာဝီလမ်းဆုံ", "TownMm": "မြောက်ဥက္ကလာပ", "RoadMm": "ခေမာသီလမ်း", "NameEng": "May Dar Wi", "TownEng": "North Oakkalapa", "RoadEng": "Khaymar Thi Rd", "Note": "2,15,16,36,64.1,92,137", "Latitude": 16.899611, "Longitude": 96.154737 }, { "No": 241, "RevNo": [342], "NameMm": "ရုံးသစ်", "TownMm": "မြောက်ဥက္ကလာပ", "RoadMm": "ခေမာသီလမ်း", "NameEng": "Yone Thit", "TownEng": "North Oakkalapa", "RoadEng": "Khaymar Thi Rd", "Note": "2,15,16,36,64.1,92,137", "Latitude": 16.8968631436226, "Longitude": 96.1553814027565 }, { "No": 242, "RevNo": [341], "NameMm": "ဂိတ်ဟောင်း", "TownMm": "မြောက်ဥက္ကလာပ", "RoadMm": "စက်မှုဇုန်လမ်း", "NameEng": "Gate Haung", "TownEng": "North Oakkalapa", "RoadEng": "Industrial Rd", "Note": "2,10,15,28,135", "Latitude": 16.893797, "Longitude": 96.157459 }, { "No": 243, "RevNo": [340], "NameMm": "ဂန္ဓာရုံ", "TownMm": "မြောက်ဒဂုံ", "RoadMm": "စက်မှုဇုန်လမ်း", "NameEng": "Gandar Yon", "TownEng": "North Dagon", "RoadEng": "Industrial Rd", "Note": "2,10,15,28,135", "Latitude": 16.886455, "Longitude": 96.164074 }, { "No": 244, "RevNo": [339], "NameMm": "ခေမာ", "TownMm": "မြောက်ဒဂုံ", "RoadMm": "ဗိုလ်မှူးဗထူးလမ်း", "NameEng": "Khay Mar", "TownEng": "North Dagon", "RoadEng": "Bo Hmu Ba Htoo Rd", "Note": "2,10,15,27,28,108,135", "Latitude": 16.8860514583477, "Longitude": 96.1683553684818 }, { "No": 245, "RevNo": [338], "NameMm": "ဖြိုးစံပယ်", "TownMm": "မြောက်ဒဂုံ", "RoadMm": "ဗိုလ်မှူးဗထူးလမ်း", "NameEng": "Phyo Sabei", "TownEng": "North Dagon", "RoadEng": "Bo Hmu Ba Htoo Rd", "Note": "2,10,15,27,28,108,135", "Latitude": 16.887412, "Longitude": 96.170942 }, { "No": 246, "RevNo": [337], "NameMm": "ကျောင်းကွေ့", "TownMm": "မြောက်ဒဂုံ", "RoadMm": "ဗိုလ်မှူးဗထူးလမ်း", "NameEng": "Kyaung Kwae", "TownEng": "North Dagon", "RoadEng": "Bo Hmu Ba Htoo Rd", "Note": "2,10,13,15,27,28,108,135", "Latitude": 16.889584, "Longitude": 96.175235 }, { "No": 247, "RevNo": [336], "NameMm": "ကျန်းမာရေး", "TownMm": "မြောက်ဒဂုံ", "RoadMm": "ဗိုလ်မှူးဗထူးလမ်း", "NameEng": "Kyan Mar Yae", "TownEng": "North Dagon", "RoadEng": "Bo Hmu Ba Htoo Rd", "Note": "2,10,13,15,27,28,108,135", "Latitude": 16.891235, "Longitude": 96.178457 }, { "No": 248, "RevNo": [335], "NameMm": "၄၄လမ်းဆုံ", "TownMm": "မြောက်ဒဂုံ", "RoadMm": "ဗိုလ်မှူးဗထူးလမ်း", "NameEng": "44 Lan Sone", "TownEng": "North Dagon", "RoadEng": "Bo Hmu Ba Htoo Rd", "Note": "2,10,13,15,27,28,108,135", "Latitude": 16.8929043677539, "Longitude": 96.1817087384909 }, { "No": 249, "RevNo": [334], "NameMm": "ကျောင်းလေးရှေ့", "TownMm": "မြောက်ဒဂုံ", "RoadMm": "ဗိုလ်မှူးဗထူးလမ်း", "NameEng": "Kyanung Lay Shae", "TownEng": "North Dagon", "RoadEng": "Bo Hmu Ba Htoo Rd", "Note": "2,10,13,15,27,28,108,135", "Latitude": 16.893685, "Longitude": 96.183235 }, { "No": 250, "RevNo": [333], "NameMm": "ဗညားဒလ", "TownMm": "မြောက်ဒဂုံ", "RoadMm": "ဗိုလ်မှူးဗထူးလမ်း", "NameEng": "Banyardala", "TownEng": "North Dagon", "RoadEng": "Bo Hmu Ba Htoo Rd", "Note": "2,10,13,15,27,28,108,135", "Latitude": 16.894687, "Longitude": 96.18519 }, { "No": 251, "RevNo": [332], "NameMm": "ဗထူးဈေး", "TownMm": "မြောက်ဒဂုံ", "RoadMm": "ဗိုလ်မှူးဗထူးလမ်း", "NameEng": "Ba Htoo Zay", "TownEng": "North Dagon", "RoadEng": "Bo Hmu Ba Htoo Rd", "Note": "2,10,13,15,27,28,108,135", "Latitude": 16.8954667054538, "Longitude": 96.1866677325933 }, { "No": 252, "RevNo": [331], "NameMm": "ကြားမှတ်တိုင်", "TownMm": "မြောက်ဒဂုံ", "RoadMm": "ဗိုလ်မှူးဗထူးလမ်း", "NameEng": "Kyar Hmat Taing", "TownEng": "North Dagon", "RoadEng": "Bo Hmu Ba Htoo Rd", "Note": "2,10,13,15,27,28,108,135", "Latitude": 16.897818, "Longitude": 96.191227 }, { "No": 253, "RevNo": [330], "NameMm": "၄၆လမ်းဆုံ(ဘယ်)", "TownMm": "မြောက်ဒဂုံ", "RoadMm": "ဗိုလ်မှူးဗထူးလမ်း", "NameEng": "46 Lan Sone(Left)", "TownEng": "North Dagon", "RoadEng": "Bo Hmu Ba Htoo Rd", "Note": "2,10,13,15,27,28,108,135", "Latitude": 16.89826482065738, "Longitude": 96.1921792055858 }, { "No": 254, "RevNo": [329], "NameMm": "၄၅", "TownMm": "မြောက်ဒဂုံ", "RoadMm": "ပြည်ထောင်စုလမ်းမကြီး", "NameEng": "45", "TownEng": "North Dagon", "RoadEng": "Pyi Htaung Su Main Rd", "Note": "2,12,27,62,66,87,88", "Latitude": 16.895146, "Longitude": 96.194419 }, { "No": 255, "RevNo": [328], "NameMm": "၇/၈လမ်းဆုံ", "TownMm": "မြောက်ဒဂုံ", "RoadMm": "ပြည်ထောင်စုလမ်းမကြီး", "NameEng": "7/8 Lan Sone", "TownEng": "North Dagon", "RoadEng": "Pyi Htaung Su Main Rd", "Note": "2,12,25,29,30,62,87,88,117,128,139", "Latitude": 16.890687, "Longitude": 96.196866 }, { "No": 256, "RevNo": [327], "NameMm": "ရုံးရှေ့(၃၈ရပ်ကွက်)", "TownMm": "မြောက်ဒဂုံ", "RoadMm": "ပြည်ထောင်စုလမ်းမကြီး", "NameEng": "Yone Shae(38 Yat Kwet)", "TownEng": "North Dagon", "RoadEng": "Pyi Htaung Su Main Rd", "Note": "2,12,25,29,30,62,87,88,117,128,139", "Latitude": 16.887488, "Longitude": 96.198632 }, { "No": 257, "RevNo": [326], "NameMm": "ကုန်ပဒေသာ", "TownMm": "မြောက်ဒဂုံ", "RoadMm": "ပြည်ထောင်စုလမ်းမကြီး", "NameEng": "Koun Padaythar", "TownEng": "North Dagon", "RoadEng": "Pyi Htaung Su Main Rd", "Note": "2,12,24,25,26,29,30,62,87,88,114,117,128,139", "Latitude": 16.883996, "Longitude": 96.20062 }, { "No": 258, "RevNo": [325], "NameMm": "စွမ်းအင်", "TownMm": "မြောက်ဒဂုံ", "RoadMm": "ပြည်ထောင်စုလမ်းမကြီး", "NameEng": "Swan In", "TownEng": "North Dagon", "RoadEng": "Pyi Htaung Su Main Rd", "Note": "2,12,24,25,26,29,30,62,87,88,114,117,128,139", "Latitude": 16.880865, "Longitude": 96.20233 }, { "No": 259, "RevNo": [324], "NameMm": "မဝတလမ်းဆုံ", "TownMm": "မြောက်ဒဂုံ", "RoadMm": "ပြည်ထောင်စုလမ်းမကြီး", "NameEng": "Ma Wa Ta", "TownEng": "North Dagon", "RoadEng": "Pyi Htaung Su Main Rd", "Note": "2,24,25,62,99,114", "Latitude": 16.876548, "Longitude": 96.204636 }, { "No": 260, "RevNo": [323], "NameMm": "အားကစားကွင်း", "TownMm": "မြောက်ဒဂုံ", "RoadMm": "ပြည်ထောင်စုလမ်းမကြီး", "NameEng": "Arr Kasar Kwin", "TownEng": "North Dagon", "RoadEng": "Pyi Htaung Su Main Rd", "Note": "2,24,25,62,99,114", "Latitude": 16.8726541179237, "Longitude": 96.2063311331464 }, { "No": 261, "RevNo": [322], "NameMm": "ကပရ", "TownMm": "မြောက်ဒဂုံ", "RoadMm": "ပြည်ထောင်စုလမ်းမကြီး", "NameEng": "Ka Pa Ya", "TownEng": "North Dagon", "RoadEng": "Pyi Htaung Su Main Rd", "Note": "2,24,25,62,99,114", "Latitude": 16.869716, "Longitude": 96.207541 }, { "No": 262, "RevNo": [321], "NameMm": "၂၈ တံတားထိပ်", "TownMm": "မြောက်ဒဂုံ", "RoadMm": "ပြည်ထောင်စုလမ်းမကြီး", "NameEng": "28 Tadar Htake", "TownEng": "North Dagon", "RoadEng": "Pyi Htaung Su Main Rd", "Note": "2,24,25,62,75,99,114", "Latitude": 16.866329, "Longitude": 96.208897 }, { "No": 263, "RevNo": [320], "NameMm": "မြို့ဦးစေတီ", "TownMm": "မြောက်ဒဂုံ", "RoadMm": "ပြည်ထောင်စုလမ်းမကြီး", "NameEng": "Myo Oo Zedi", "TownEng": "North Dagon", "RoadEng": "Pyi Htaung Su Main Rd", "Note": "2,24,25,75", "Latitude": 16.863002, "Longitude": 96.211788 }, { "No": 264, "RevNo": [319], "NameMm": "တောင်မြောက်လမ်းဆုံ", "TownMm": "မြောက်ဒဂုံ", "RoadMm": "ပြည်ထောင်စုလမ်းမကြီး", "NameEng": "Taung Myauk Lan Sone", "TownEng": "North Dagon", "RoadEng": "Pyi Htaung Su Main Rd", "Note": "2,24,25,62,75,99,114", "Latitude": 16.861652, "Longitude": 96.213456 }, { "No": 265, "RevNo": [318], "NameMm": "သီတာဦး", "TownMm": "တောင်ဒဂုံ", "RoadMm": "မောင်းမကန်ကမ်းသာလမ်း", "NameEng": "Thidar Oo", "TownEng": "South Dagon", "RoadEng": "Maung Makan Kanthar Rd", "Note": "2,7.1,99,111.1", "Latitude": 16.8651012954426, "Longitude": 96.2245302571048 }, { "No": 266, "RevNo": [317], "NameMm": "ဘော်ဒီရုံ", "TownMm": "တောင်ဒဂုံ", "RoadMm": "မောင်းမကန်ကမ်းသာလမ်း", "NameEng": "Body Yone", "TownEng": "South Dagon", "RoadEng": "Maung Makan Kanthar Rd", "Note": "2,7.1,99,111.1", "Latitude": 16.863536, "Longitude": 96.227753 }, { "No": 267, "RevNo": [316], "NameMm": "မြို့ဦးကျောင်း", "TownMm": "တောင်ဒဂုံ", "RoadMm": "မောင်းမကန်ကမ်းသာလမ်း", "NameEng": "Myoe Oo Kyaung", "TownEng": "South Dagon", "RoadEng": "Maung Makan Kanthar Rd", "Note": "2,7.1,99,111.1", "Latitude": 16.8618382271185, "Longitude": 96.2299628060631 }, { "No": 268, "RevNo": [315], "NameMm": "သပြေညို", "TownMm": "တောင်ဒဂုံ", "RoadMm": "မောင်းမကန်ကမ်းသာလမ်း", "NameEng": "Tha Pyay Nyo", "TownEng": "South Dagon", "RoadEng": "Maung Makan Kanthar Rd", "Note": "2,7.1,99,111.1", "Latitude": 16.86002, "Longitude": 96.232275 }, { "No": 269, "RevNo": [314], "NameMm": "၁၈ကွေ့", "TownMm": "တောင်ဒဂုံ", "RoadMm": "မောင်းမကန်ကမ်းသာလမ်း", "NameEng": "18 Kwae", "TownEng": "South Dagon", "RoadEng": "Maung Makan Kanthar Rd", "Note": "2,3,6,7.1,59,99,110,111.1", "Latitude": 16.85794, "Longitude": 96.234903 }, { "No": 270, "RevNo": [313], "NameMm": "တံတားထိပ်", "TownMm": "တောင်ဒဂုံ", "RoadMm": "မောင်းမကန်ကမ်းသာလမ်း", "NameEng": "Tadar Htate", "TownEng": "South Dagon", "RoadEng": "Maung Makan Kanthar Rd", "Note": "2,3,6,7.1,59,99,110,111.1", "Latitude": 16.8558378173188, "Longitude": 96.2375503547475 }, { "No": 271, "RevNo": [312], "NameMm": "ဘုန်းကြီးကျောင်းကွေ့", "TownMm": "တောင်ဒဂုံ", "RoadMm": "မောင်းမကန်ကမ်းသာလမ်း", "NameEng": "Phone Gyi Kyaung Kwae", "TownEng": "South Dagon", "RoadEng": "Maung Makan Kanthar Rd", "Note": "2,3,6,7.1,59,83,99,110", "Latitude": 16.8542436180729, "Longitude": 96.2395765753644 }, { "No": 272, "RevNo": [311], "NameMm": "ကားလေးဂိတ်", "TownMm": "တောင်ဒဂုံ", "RoadMm": "လှော်ကားလမ်း", "NameEng": "Kar Lay Gate", "TownEng": "South Dagon", "RoadEng": "Hlaw Gar Rd", "Note": "2,7,83,103,111,112", "Latitude": 16.851753, "Longitude": 96.237946 }, { "No": 273, "RevNo": [310], "NameMm": "၂၀ကုန်တိုက်", "TownMm": "တောင်ဒဂုံ", "RoadMm": "လှော်ကားလမ်း", "NameEng": "20 Koun Tike", "TownEng": "South Dagon", "RoadEng": "Hlaw Gar Rd", "Note": "2,7,83,103,111,112", "Latitude": 16.848743, "Longitude": 96.235355 }, { "No": 274, "RevNo": [309], "NameMm": "သစ္စာ", "TownMm": "တောင်ဒဂုံ", "RoadMm": "လှော်ကားလမ်း", "NameEng": "Thitsar", "TownEng": "South Dagon", "RoadEng": "Hlaw Gar Rd", "Note": "2,7,83,103,111,112", "Latitude": 16.845765, "Longitude": 96.232764 }, { "No": 275, "RevNo": [308], "NameMm": "ကြာကန်", "TownMm": "တောင်ဒဂုံ", "RoadMm": "လှော်ကားလမ်း", "NameEng": "Kyar Kan", "TownEng": "South Dagon", "RoadEng": "Hlaw Gar Rd", "Note": "2,7,83,103,111,112", "Latitude": 16.844062, "Longitude": 96.231426 }, { "No": 276, "RevNo": [307], "NameMm": "စက်မှုဇုန်(၂)", "TownMm": "တောင်ဒဂုံ", "RoadMm": "ပြည်ထောင်စုလမ်းမကြီး", "NameEng": "Set Hmu Zone 2", "TownEng": "South Dagon", "RoadEng": "Pyi Htaung Su Main Rd", "Note": "2,7,60,60.1,83,103,111,112,144", "Latitude": 16.8415569960369, "Longitude": 96.2301117156595 }, { "No": 277, "RevNo": [306], "NameMm": "ဈေးလေး", "TownMm": "တောင်ဒဂုံ", "RoadMm": "ပြည်ထောင်စုလမ်းမကြီး", "NameEng": "Zay Lay", "TownEng": "South Dagon", "RoadEng": "Pyi Htaung Su Main Rd", "Note": "2,60,60.1,144", "Latitude": 16.8394063614438, "Longitude": 96.2320136340262 }, { "No": 278, "RevNo": [305], "NameMm": "ဧရာတီလမ်းဆုံ", "TownMm": "တောင်ဒဂုံ", "RoadMm": "ပြည်ထောင်စုလမ်းမကြီး", "NameEng": "Ayer Waddy Lane Sone", "TownEng": "South Dagon", "RoadEng": "Pyi Htaung Su Main Rd", "Note": "2,60,60.1,144", "Latitude": 16.8376637886821, "Longitude": 96.2330371423308 }, { "No": 279, "RevNo": [304], "NameMm": "ရုံးရှေ့", "TownMm": "တောင်ဒဂုံ", "RoadMm": "ပြည်ထောင်စုလမ်းမကြီး", "NameEng": "Yone Shae", "TownEng": "South Dagon", "RoadEng": "Pyi Htaung Su Main Rd", "Note": "2,60,60.1,144", "Latitude": 16.835962, "Longitude": 96.233886 }, { "No": 280, "RevNo": [303], "NameMm": "မင်းကွန်းဈေး", "TownMm": "တောင်ဒဂုံ", "RoadMm": "ပြည်ထောင်စုလမ်းမကြီး", "NameEng": "Min Kun Zay", "TownEng": "South Dagon", "RoadEng": "Pyi Htaung Su Main Rd", "Note": "2,60,60.1,144", "Latitude": 16.8332829996049, "Longitude": 96.233989913391 }, { "No": 281, "RevNo": [302], "NameMm": "ဘီအမ်ဂိတ်", "TownMm": "တောင်ဒဂုံ", "RoadMm": "ပြည်ထောင်စုလမ်းမကြီး", "NameEng": "BM Gate", "TownEng": "South Dagon", "RoadEng": "Pyi Htaung Su Main Rd", "Note": "2,60,60.1,144", "Latitude": 16.831857, "Longitude": 96.234124 }, { "No": 282, "RevNo": [301], "NameMm": "ပုလဲကန်", "TownMm": "တောင်ဒဂုံ", "RoadMm": "ပြည်ထောင်စုလမ်းမကြီး", "NameEng": "Pale Kan", "TownEng": "South Dagon", "RoadEng": "Pyi Htaung Su Main Rd", "Note": "2,60,60.1,144", "Latitude": 16.830566, "Longitude": 96.235249 }, { "No": 283, "RevNo": [300], "NameMm": "ဆောက်လုပ်ရေး", "TownMm": "တောင်ဒဂုံ", "RoadMm": "ပြည်ထောင်စုလမ်းမကြီး", "NameEng": "Sauk Lote Yae", "TownEng": "South Dagon", "RoadEng": "Pyi Htaung Su Main Rd", "Note": "2,60,60.1,144", "Latitude": 16.8283184057697, "Longitude": 96.2413102669798 }, { "No": 284, "RevNo": [299], "NameMm": "ရတနာလမ်းဆုံ", "TownMm": "ဒဂုံဆိပ်ကမ်း", "RoadMm": "ရွှေလီလမ်း", "NameEng": "Yadanar Lan Sone", "TownEng": "Dagon Seikkan", "RoadEng": "Shwe Li Rd", "Note": "2,5", "Latitude": 16.82663, "Longitude": 96.246826 }, { "No": 285, "RevNo": [298], "NameMm": "ဆီဆိုင်(မှတ်တိုင်ရှာမတွေ့)", "TownMm": "ဒဂုံဆိပ်ကမ်း", "RoadMm": "ရွှေလီလမ်း", "NameEng": "Si Saing((Not Found)", "TownEng": "Dagon Seikkan", "RoadEng": "Shwe Li Rd", "Note": "2,4,5", "Latitude": 16.825121, "Longitude": 96.252235 }, { "No": 286, "RevNo": [297], "NameMm": "မုခ်ဦး(မှတ်တိုင်ရှာမတွေ့)", "TownMm": "ဒဂုံဆိပ်ကမ်း", "RoadMm": "ရွှေလီလမ်း", "NameEng": "Moke Oo(Not Found)", "TownEng": "Dagon Seikkan", "RoadEng": "Shwe Li Rd", "Note": "2,4,5,144", "Latitude": 16.823818, "Longitude": 96.256533 }, { "No": 287, "RevNo": [296], "NameMm": "အဝိုင်းထိပ်(ကွန်တိန်နာဂိတ်)", "TownMm": "ဒဂုံဆိပ်ကမ်း", "RoadMm": "ရွှေလီလမ်း", "NameEng": "Awine Htate", "TownEng": "Dagon Seikkan", "RoadEng": "Shwe Li Rd", "Note": "2,5,133,133.1,144", "Latitude": 16.8212, "Longitude": 96.265232 }, { "No": 288, "RevNo": [295], "NameMm": "၁၄လမ်း", "TownMm": "ဒဂုံဆိပ်ကမ်း", "RoadMm": "ကျွန်းရွှေဝါလမ်း", "NameEng": "14th Street", "TownEng": "Dagon Seikkan", "RoadEng": "Kyun Shwe War Rd", "Note": "2,3,5,110,133,133.1,144", "Latitude": 16.822526, "Longitude": 96.267707 }, { "No": 289, "RevNo": [294], "NameMm": "၁၁လမ်း", "TownMm": "ဒဂုံဆိပ်ကမ်း", "RoadMm": "ကျွန်းရွှေဝါလမ်း", "NameEng": "11th Street", "TownEng": "Dagon Seikkan", "RoadEng": "Kyun Shwe War Rd", "Note": "2,3,5,110,133,133.1,144", "Latitude": 16.823531, "Longitude": 96.268016 }, { "No": 290, "RevNo": [293], "NameMm": "၅လမ်း", "TownMm": "ဒဂုံဆိပ်ကမ်း", "RoadMm": "ကျွန်းရွှေဝါလမ်း", "NameEng": "5th Street", "TownEng": "Dagon Seikkan", "RoadEng": "Kyun Shwe War Rd", "Note": "2,3,5,110,133,133.1,144", "Latitude": 16.825569, "Longitude": 96.268619 }, { "No": 291, "RevNo": [292], "NameMm": "ပိတောက်ကွေ့", "TownMm": "ဒဂုံဆိပ်ကမ်း", "RoadMm": "ကျွန်းရွှေဝါလမ်း", "NameEng": "Padauk Kwae", "TownEng": "Dagon Seikkan", "RoadEng": "Kyun Shwe War Rd", "Note": "2,3,5,110,133,133.1,144", "Latitude": 16.8272734916447, "Longitude": 96.2694045615249 }, { "No": 292, "RevNo": [291], "NameMm": "ပိတောက်ကွေ့", "TownMm": "ဒဂုံဆိပ်ကမ်း", "RoadMm": "ကျွန်းရွှေဝါလမ်း", "NameEng": "Padauk Kwae", "TownEng": "Dagon Seikkan", "RoadEng": "Kyun Shwe War Rd", "Note": "2,3,5,110,133,133.1,144", "Latitude": 16.827294, "Longitude": 96.269304 }, { "No": 293, "RevNo": [290], "NameMm": "၅လမ်း", "TownMm": "ဒဂုံဆိပ်ကမ်း", "RoadMm": "ကျွန်းရွှေဝါလမ်း", "NameEng": "5th Street", "TownEng": "Dagon Seikkan", "RoadEng": "Kyun Shwe War Rd", "Note": "2,3,5,110,133,133.1,144", "Latitude": 16.825631, "Longitude": 96.268482 }, { "No": 294, "RevNo": [289], "NameMm": "၁၁လမ်း", "TownMm": "ဒဂုံဆိပ်ကမ်း", "RoadMm": "ကျွန်းရွှေဝါလမ်း", "NameEng": "11th Street", "TownEng": "Dagon Seikkan", "RoadEng": "Kyun Shwe War Rd", "Note": "2,3,5,110,133,133.1,144", "Latitude": 16.823573, "Longitude": 96.267881 }, { "No": 295, "RevNo": [288], "NameMm": "၁၄လမ်း", "TownMm": "ဒဂုံဆိပ်ကမ်း", "RoadMm": "ကျွန်းရွှေဝါလမ်း", "NameEng": "14th Street", "TownEng": "Dagon Seikkan", "RoadEng": "Kyun Shwe War Rd", "Note": "2,3,5,110,133,133.1,144", "Latitude": 16.822558, "Longitude": 96.267537 }, { "No": 296, "RevNo": [287], "NameMm": "အဝိုင်းထိပ်(ကွန်တိန်နာဂိတ်)", "TownMm": "ဒဂုံဆိပ်ကမ်း", "RoadMm": "ရွှေလီလမ်း", "NameEng": "Awine Htate", "TownEng": "Dagon Seikkan", "RoadEng": "Shwe Li Rd", "Note": "2,5,133,133.1,144", "Latitude": 16.821305, "Longitude": 96.265264 }, { "No": 297, "RevNo": [286], "NameMm": "မုခ်ဦး(မှတ်တိုင်ရှာမတွေ့)", "TownMm": "ဒဂုံဆိပ်ကမ်း", "RoadMm": "ရွှေလီလမ်း", "NameEng": "Moke Oo(Not Found)", "TownEng": "Dagon Seikkan", "RoadEng": "Shwe Li Rd", "Note": "2,4,5,144", "Latitude": 16.823936, "Longitude": 96.256577 }, { "No": 298, "RevNo": [285], "NameMm": "ဆီဆိုင်(မှတ်တိုင်ရှာမတွေ့)", "TownMm": "ဒဂုံဆိပ်ကမ်း", "RoadMm": "ရွှေလီလမ်း", "NameEng": "Si Saing((Not Found)", "TownEng": "Dagon Seikkan", "RoadEng": "Shwe Li Rd", "Note": "2,4,5", "Latitude": 16.825242, "Longitude": 96.252256 }, { "No": 299, "RevNo": [284], "NameMm": "ရတနာလမ်းဆုံ", "TownMm": "ဒဂုံဆိပ်ကမ်း", "RoadMm": "ရွှေလီလမ်း", "NameEng": "Yadanar Lan Sone", "TownEng": "Dagon Seikkan", "RoadEng": "Shwe Li Rd", "Note": "2,4,5", "Latitude": 16.826816, "Longitude": 96.246964 }, { "No": 300, "RevNo": [283], "NameMm": "ဆောက်လုပ်ရေး", "TownMm": "တောင်ဒဂုံ", "RoadMm": "ပြည်ထောင်စုလမ်းမကြီး", "NameEng": "Sauk Lote Yae", "TownEng": "South Dagon", "RoadEng": "Pyi Htaung Su Main Rd", "Note": "2,60,60.1,144", "Latitude": 16.828805, "Longitude": 96.240249 }, { "No": 301, "RevNo": [282], "NameMm": "ပုလဲကန်", "TownMm": "တောင်ဒဂုံ", "RoadMm": "ပြည်ထောင်စုလမ်းမကြီး", "NameEng": "Pale Kan", "TownEng": "South Dagon", "RoadEng": "Pyi Htaung Su Main Rd", "Note": "2,60,60.1,144", "Latitude": 16.830584, "Longitude": 96.235398 }, { "No": 302, "RevNo": [281], "NameMm": "ဘီအမ်ဂိတ်", "TownMm": "တောင်ဒဂုံ", "RoadMm": "ပြည်ထောင်စုလမ်းမကြီး", "NameEng": "BM Gate", "TownEng": "South Dagon", "RoadEng": "Pyi Htaung Su Main Rd", "Note": "2,60,60.1,144", "Latitude": 16.832006, "Longitude": 96.234196 }, { "No": 303, "RevNo": [280], "NameMm": "မင်းကွန်းဈေး", "TownMm": "တောင်ဒဂုံ", "RoadMm": "ပြည်ထောင်စုလမ်းမကြီး", "NameEng": "Min Kun Zay", "TownEng": "South Dagon", "RoadEng": "Pyi Htaung Su Main Rd", "Note": "2,60,60.1,144", "Latitude": 16.833530782644033, "Longitude": 96.2341330622699 }, { "No": 304, "RevNo": [279], "NameMm": "ရုံးရှေ့", "TownMm": "တောင်ဒဂုံ", "RoadMm": "ပြည်ထောင်စုလမ်းမကြီး", "NameEng": "Yone Shae", "TownEng": "South Dagon", "RoadEng": "Pyi Htaung Su Main Rd", "Note": "2,60,60.1,144", "Latitude": 16.836059, "Longitude": 96.233985 }, { "No": 305, "RevNo": [278], "NameMm": "ဧရာတီလမ်းဆုံ", "TownMm": "တောင်ဒဂုံ", "RoadMm": "ပြည်ထောင်စုလမ်းမကြီး", "NameEng": "Ayer Waddy Lane Sone", "TownEng": "South Dagon", "RoadEng": "Pyi Htaung Su Main Rd", "Note": "2,60,60.1,144", "Latitude": 16.837785, "Longitude": 96.233126 }, { "No": 306, "RevNo": [277], "NameMm": "ဈေးလေး", "TownMm": "တောင်ဒဂုံ", "RoadMm": "ပြည်ထောင်စုလမ်းမကြီး", "NameEng": "Zay Lay", "TownEng": "South Dagon", "RoadEng": "Pyi Htaung Su Main Rd", "Note": "2,60,60.1,144", "Latitude": 16.83938058159741, "Longitude": 96.23218022364115 }, { "No": 307, "RevNo": [276], "NameMm": "စက်မှုဇုန်(၂)", "TownMm": "တောင်ဒဂုံ", "RoadMm": "ပြည်ထောင်စုလမ်းမကြီး", "NameEng": "Set Hmu Zone 2", "TownEng": "South Dagon", "RoadEng": "Pyi Htaung Su Main Rd", "Note": "2,7,60,60.1,83,103,111,112,144", "Latitude": 16.842119, "Longitude": 96.230178 }, { "No": 308, "RevNo": [275], "NameMm": "ကြာကန်", "TownMm": "တောင်ဒဂုံ", "RoadMm": "လှော်ကားလမ်း", "NameEng": "Kyar Kan", "TownEng": "South Dagon", "RoadEng": "Hlaw Gar Rd", "Note": "2,7,83,103,111,112", "Latitude": 16.844053, "Longitude": 96.231580 }, { "No": 309, "RevNo": [274], "NameMm": "သစ္စာ", "TownMm": "တောင်ဒဂုံ", "RoadMm": "လှော်ကားလမ်း", "NameEng": "Thitsar", "TownEng": "South Dagon", "RoadEng": "Hlaw Gar Rd", "Note": "2,7,83,103,111,112", "Latitude": 16.845685, "Longitude": 96.232901 }, { "No": 310, "RevNo": [273], "NameMm": "၂၀ကုန်တိုက်", "TownMm": "တောင်ဒဂုံ", "RoadMm": "လှော်ကားလမ်း", "NameEng": "20 Koun Tike", "TownEng": "South Dagon", "RoadEng": "Hlaw Gar Rd", "Note": "2,7,83,103,111,112", "Latitude": 16.848670, "Longitude": 96.235474 }, { "No": 311, "RevNo": [272], "NameMm": "ကားလေးဂိတ်", "TownMm": "တောင်ဒဂုံ", "RoadMm": "လှော်ကားလမ်း", "NameEng": "Kar Lay Gate", "TownEng": "South Dagon", "RoadEng": "Hlaw Gar Rd", "Note": "2,7,83,103,111,112", "Latitude": 16.851671, "Longitude": 96.238049 }, { "No": 312, "RevNo": [271], "NameMm": "ဘုန်းကြီးကျောင်းကွေ့", "TownMm": "တောင်ဒဂုံ", "RoadMm": "မောင်းမကန်ကမ်းသာလမ်း", "NameEng": "Phone Gyi Kyaung Kwae", "TownEng": "South Dagon", "RoadEng": "Maung Makan Kanthar Rd", "Note": "2,3,6,7.1,59,83,99,110", "Latitude": 16.854334, "Longitude": 96.239656 }, { "No": 313, "RevNo": [270], "NameMm": "တံတားထိပ်", "TownMm": "တောင်ဒဂုံ", "RoadMm": "မောင်းမကန်ကမ်းသာလမ်း", "NameEng": "Tadar Htate", "TownEng": "South Dagon", "RoadEng": "Maung Makan Kanthar Rd", "Note": "2,3,6,7.1,59,99,110,111.1", "Latitude": 16.855940472753662, "Longitude": 96.2376851537821 }, { "No": 314, "RevNo": [269], "NameMm": "၁၈ကွေ့", "TownMm": "တောင်ဒဂုံ", "RoadMm": "မောင်းမကန်ကမ်းသာလမ်း", "NameEng": "18 Kwae", "TownEng": "South Dagon", "RoadEng": "Maung Makan Kanthar Rd", "Note": "2,3,6,7.1,59,99,110,111.1", "Latitude": 16.858416253229343, "Longitude": 96.23453492945785 }, { "No": 315, "RevNo": [268], "NameMm": "သပြေညို", "TownMm": "တောင်ဒဂုံ", "RoadMm": "မောင်းမကန်ကမ်းသာလမ်း", "NameEng": "Tha Pyay Nyo", "TownEng": "South Dagon", "RoadEng": "Maung Makan Kanthar Rd", "Note": "2,7.1,99,111.1", "Latitude": 16.860108, "Longitude": 96.232416 }, { "No": 316, "RevNo": [267], "NameMm": "မြို့ဦးကျောင်း", "TownMm": "တောင်ဒဂုံ", "RoadMm": "မောင်းမကန်ကမ်းသာလမ်း", "NameEng": "Myoe Oo Kyaung", "TownEng": "South Dagon", "RoadEng": "Maung Makan Kanthar Rd", "Note": "2,7.1,99,111.1", "Latitude": 16.861698046852894, "Longitude": 96.23045180827569 }, { "No": 317, "RevNo": [266], "NameMm": "ဘော်ဒီရုံ", "TownMm": "တောင်ဒဂုံ", "RoadMm": "မောင်းမကန်ကမ်းသာလမ်း", "NameEng": "Body Yone", "TownEng": "South Dagon", "RoadEng": "Maung Makan Kanthar Rd", "Note": "2,7.1,99,111.1", "Latitude": 16.863672, "Longitude": 96.227881 }, { "No": 318, "RevNo": [265], "NameMm": "သီတာဦး", "TownMm": "တောင်ဒဂုံ", "RoadMm": "မောင်းမကန်ကမ်းသာလမ်း", "NameEng": "Thidar Oo", "TownEng": "South Dagon", "RoadEng": "Maung Makan Kanthar Rd", "Note": "2,7.1,99,111.1", "Latitude": 16.865192, "Longitude": 96.224577 }, { "No": 319, "RevNo": [264], "NameMm": "တောင်မြောက်လမ်းဆုံ", "TownMm": "မြောက်ဒဂုံ", "RoadMm": "ပြည်ထောင်စုလမ်းမကြီး", "NameEng": "Taung Myauk Lan Sone", "TownEng": "North Dagon", "RoadEng": "Pyi Htaung Su Main Rd", "Note": "2,24,25,62,75,99,114", "Latitude": 16.861707, "Longitude": 96.213511 }, { "No": 320, "RevNo": [263], "NameMm": "မြို့ဦးစေတီ", "TownMm": "မြောက်ဒဂုံ", "RoadMm": "ပြည်ထောင်စုလမ်းမကြီး", "NameEng": "Myo Oo Zedi", "TownEng": "North Dagon", "RoadEng": "Pyi Htaung Su Main Rd", "Note": "2,24,25,75", "Latitude": 16.863185, "Longitude": 96.211850 }, { "No": 321, "RevNo": [262], "NameMm": "၂၈ တံတားထိပ်", "TownMm": "မြောက်ဒဂုံ", "RoadMm": "ပြည်ထောင်စုလမ်းမကြီး", "NameEng": "28 Tadar Htake", "TownEng": "North Dagon", "RoadEng": "Pyi Htaung Su Main Rd", "Note": "2,24,25,62,75,99,114", "Latitude": 16.866080, "Longitude": 96.209183 }, { "No": 322, "RevNo": [261], "NameMm": "ကပရ", "TownMm": "မြောက်ဒဂုံ", "RoadMm": "ပြည်ထောင်စုလမ်းမကြီး", "NameEng": "Ka Pa Ya", "TownEng": "North Dagon", "RoadEng": "Pyi Htaung Su Main Rd", "Note": "2,24,25,62,99,114", "Latitude": 16.869832, "Longitude": 96.207691 }, { "No": 323, "RevNo": [260], "NameMm": "အားကစားကွင်း", "TownMm": "မြောက်ဒဂုံ", "RoadMm": "ပြည်ထောင်စုလမ်းမကြီး", "NameEng": "Arr Kasar Kwin", "TownEng": "North Dagon", "RoadEng": "Pyi Htaung Su Main Rd", "Note": "2,24,25,62,99,114", "Latitude": 16.872839, "Longitude": 96.206414 }, { "No": 324, "RevNo": [259], "NameMm": "မဝတလမ်းဆုံ", "TownMm": "မြောက်ဒဂုံ", "RoadMm": "ပြည်ထောင်စုလမ်းမကြီး", "NameEng": "Ma Wa Ta", "TownEng": "North Dagon", "RoadEng": "Pyi Htaung Su Main Rd", "Note": "2,24,25,62,99,114", "Latitude": 16.878127, "Longitude": 96.204106 }, { "No": 325, "RevNo": [258], "NameMm": "စွမ်းအင်", "TownMm": "မြောက်ဒဂုံ", "RoadMm": "ပြည်ထောင်စုလမ်းမကြီး", "NameEng": "Swan In", "TownEng": "North Dagon", "RoadEng": "Pyi Htaung Su Main Rd", "Note": "2,12,24,25,26,29,30,62,87,88,114,117,128,139", "Latitude": 16.881018, "Longitude": 96.202562 }, { "No": 326, "RevNo": [257], "NameMm": "ကုန်ပဒေသာ", "TownMm": "မြောက်ဒဂုံ", "RoadMm": "ပြည်ထောင်စုလမ်းမကြီး", "NameEng": "Koun Padaythar", "TownEng": "North Dagon", "RoadEng": "Pyi Htaung Su Main Rd", "Note": "2,12,24,25,26,29,30,62,87,88,114,117,128,139", "Latitude": 16.884695, "Longitude": 96.200506 }, { "No": 327, "RevNo": [256], "NameMm": "ရုံးရှေ့(၃၈ရပ်ကွက်)", "TownMm": "မြောက်ဒဂုံ", "RoadMm": "ပြည်ထောင်စုလမ်းမကြီး", "NameEng": "Yone Shae(38 Yat Kwet)", "TownEng": "North Dagon", "RoadEng": "Pyi Htaung Su Main Rd", "Note": "2,12,25,29,30,62,87,88,117,128,139", "Latitude": 16.887663, "Longitude": 96.198864 }, { "No": 328, "RevNo": [255], "NameMm": "၇/၈လမ်းဆုံ", "TownMm": "မြောက်ဒဂုံ", "RoadMm": "ပြည်ထောင်စုလမ်းမကြီး", "NameEng": "7/8 Lan Sone", "TownEng": "North Dagon", "RoadEng": "Pyi Htaung Su Main Rd", "Note": "2,12,25,29,30,62,87,88,117,128,139", "Latitude": 16.892531, "Longitude": 96.196169 }, { "No": 329, "RevNo": [254], "NameMm": "၄၅", "TownMm": "မြောက်ဒဂုံ", "RoadMm": "ပြည်ထောင်စုလမ်းမကြီး", "NameEng": "45", "TownEng": "North Dagon", "RoadEng": "Pyi Htaung Su Main Rd", "Note": "2,12,27,62,66,87,88", "Latitude": 16.895348527265647, "Longitude": 96.19458425658546 }, { "No": 330, "RevNo": [253], "NameMm": "၄၆လမ်းဆုံ(ဘယ်)", "TownMm": "မြောက်ဒဂုံ", "RoadMm": "ဗိုလ်မှူးဗထူးလမ်း", "NameEng": "46 Lan Sone(Left)", "TownEng": "North Dagon", "RoadEng": "Bo Hmu Ba Htoo Rd", "Note": "2,10,13,15,27,28,108,135", "Latitude": 16.898416, "Longitude": 96.192051 }, { "No": 331, "RevNo": [252], "NameMm": "ကြားမှတ်တိုင်", "TownMm": "မြောက်ဒဂုံ", "RoadMm": "ဗိုလ်မှူးဗထူးလမ်း", "NameEng": "Kyar Hmat Taing", "TownEng": "North Dagon", "RoadEng": "Bo Hmu Ba Htoo Rd", "Note": "2,10,13,15,27,28,108,135", "Latitude": 16.897964002145923, "Longitude": 96.1911317595685 }, { "No": 332, "RevNo": [251], "NameMm": "ဗထူးဈေး", "TownMm": "မြောက်ဒဂုံ", "RoadMm": "ဗိုလ်မှူးဗထူးလမ်း", "NameEng": "Ba Htoo Zay", "TownEng": "North Dagon", "RoadEng": "Bo Hmu Ba Htoo Rd", "Note": "2,10,13,15,27,28,108,135", "Latitude": 16.895631734404827, "Longitude": 96.18661997287983 }, { "No": 333, "RevNo": [250], "NameMm": "ဗညားဒလ", "TownMm": "မြောက်ဒဂုံ", "RoadMm": "ဗိုလ်မှူးဗထူးလမ်း", "NameEng": "Banyardala", "TownEng": "North Dagon", "RoadEng": "Bo Hmu Ba Htoo Rd", "Note": "2,10,13,15,27,28,108,135", "Latitude": 16.894801, "Longitude": 96.185085 }, { "No": 334, "RevNo": [249], "NameMm": "ကျောင်းလေးရှေ့", "TownMm": "မြောက်ဒဂုံ", "RoadMm": "ဗိုလ်မှူးဗထူးလမ်း", "NameEng": "Kyanung Lay Shae", "TownEng": "North Dagon", "RoadEng": "Bo Hmu Ba Htoo Rd", "Note": "2,10,13,15,27,28,108,135", "Latitude": 16.89380173458977, "Longitude": 96.1831257352638 }, { "No": 335, "RevNo": [248], "NameMm": "၄၄လမ်းဆုံ", "TownMm": "မြောက်ဒဂုံ", "RoadMm": "ဗိုလ်မှူးဗထူးလမ်း", "NameEng": "44 Lan Sone", "TownEng": "North Dagon", "RoadEng": "Bo Hmu Ba Htoo Rd", "Note": "2,10,13,15,27,28,108,135", "Latitude": 16.89286292593085, "Longitude": 96.1813060041703 }, { "No": 336, "RevNo": [247], "NameMm": "ကျန်းမာရေး", "TownMm": "မြောက်ဒဂုံ", "RoadMm": "ဗိုလ်မှူးဗထူးလမ်း", "NameEng": "Kyan Mar Yae", "TownEng": "North Dagon", "RoadEng": "Bo Hmu Ba Htoo Rd", "Note": "2,10,13,15,27,28,108,135", "Latitude": 16.891414694554523, "Longitude": 96.17844796737477 }, { "No": 337, "RevNo": [246], "NameMm": "ကျောင်းကွေ့", "TownMm": "မြောက်ဒဂုံ", "RoadMm": "ဗိုလ်မှူးဗထူးလမ်း", "NameEng": "Kyaung Kwae", "TownEng": "North Dagon", "RoadEng": "Bo Hmu Ba Htoo Rd", "Note": "2,10,13,15,27,28,108,135", "Latitude": 16.889728, "Longitude": 96.175146 }, { "No": 338, "RevNo": [245], "NameMm": "ဖြိုးစံပယ်", "TownMm": "မြောက်ဒဂုံ", "RoadMm": "ဗိုလ်မှူးဗထူးလမ်း", "NameEng": "Phyo Sabei", "TownEng": "North Dagon", "RoadEng": "Bo Hmu Ba Htoo Rd", "Note": "2,10,15,27,28,108,135", "Latitude": 16.887561, "Longitude": 96.170892 }, { "No": 339, "RevNo": [244], "NameMm": "ခေမာ", "TownMm": "မြောက်ဒဂုံ", "RoadMm": "ဗိုလ်မှူးဗထူးလမ်း", "NameEng": "Khay Mar", "TownEng": "North Dagon", "RoadEng": "Bo Hmu Ba Htoo Rd", "Note": "2,10,15,27,28,108,135", "Latitude": 16.886178, "Longitude": 96.168225 }, { "No": 340, "RevNo": [243], "NameMm": "ဂန္ဓာရုံ", "TownMm": "မြောက်ဒဂုံ", "RoadMm": "စက်မှုဇုန်လမ်း", "NameEng": "Gandar Yon", "TownEng": "North Dagon", "RoadEng": "Industrial Rd", "Note": "2,10,15,28,135", "Latitude": 16.886676857843067, "Longitude": 96.16414000499728 }, { "No": 341, "RevNo": [242], "NameMm": "ဂိတ်ဟောင်း", "TownMm": "မြောက်ဥက္ကလာပ", "RoadMm": "စက်မှုဇုန်လမ်း", "NameEng": "Gate Haung", "TownEng": "North Oakkalapa", "RoadEng": "Industrial Rd", "Note": "2,10,15,28,135", "Latitude": 16.893953, "Longitude": 96.157528 }, { "No": 342, "RevNo": [241], "NameMm": "ရုံးသစ်", "TownMm": "မြောက်ဥက္ကလာပ", "RoadMm": "ခေမာသီလမ်း", "NameEng": "Yone Thit", "TownEng": "North Oakkalapa", "RoadEng": "Khaymar Thi Rd", "Note": "2,15,16,64.1,92,137", "Latitude": 16.896884, "Longitude": 96.155530 }, { "No": 343, "RevNo": [240], "NameMm": "မေဓာဝီလမ်းဆုံ", "TownMm": "မြောက်ဥက္ကလာပ", "RoadMm": "ခေမာသီလမ်း", "NameEng": "May Dar Wi", "TownEng": "North Oakkalapa", "RoadEng": "Khaymar Thi Rd", "Note": "2,15,16,64.1,92,137", "Latitude": 16.89965706555884, "Longitude": 96.15492181767354 }, { "No": 344, "RevNo": [239], "NameMm": "ဥက္ကာ(ဆေး-၂)", "TownMm": "မြောက်ဥက္ကလာပ", "RoadMm": "ခေမာသီလမ်း", "NameEng": "Oakkar", "TownEng": "North Oakkalapa", "RoadEng": "Khaymar Thi Rd", "Note": "2,15,16,64.1,92,137", "Latitude": 16.902998474400764, "Longitude": 96.15460670377615 }, { "No": 345, "RevNo": [238], "NameMm": "ရုံး", "TownMm": "မြောက်ဥက္ကလာပ", "RoadMm": "ခေမာသီလမ်း", "NameEng": "Yone", "TownEng": "North Oakkalapa", "RoadEng": "Khaymar Thi Rd", "Note": "2,15,16,64.1,92,137", "Latitude": 16.90580964424327, "Longitude": 96.15472726736415 }, { "No": 346, "RevNo": [237], "NameMm": "မြရတနာ", "TownMm": "မြောက်ဥက္ကလာပ", "RoadMm": "ခေမာသီလမ်း", "NameEng": "Mya Yadanar", "TownEng": "North Oakkalapa", "RoadEng": "Khaymar Thi Rd", "Note": "2,15,16,64.1,92,137", "Latitude": 16.90813284717349, "Longitude": 96.155398868774 }, { "No": 347, "RevNo": [236], "NameMm": "နွယ်သာဂီ", "TownMm": "မြောက်ဥက္ကလာပ", "RoadMm": "ခေမာသီလမ်း", "NameEng": "Nwe Thar Gi", "TownEng": "North Oakkalapa", "RoadEng": "Khaymar Thi Rd", "Note": "2,15,16,64.1,92,137", "Latitude": 16.90968052868273, "Longitude": 96.1566745890082 }, { "No": 348, "RevNo": [235], "NameMm": "ရုပ်ရှင်ရုံ", "TownMm": "မြောက်ဥက္ကလာပ", "RoadMm": "ခေမာသီလမ်း", "NameEng": "Yoke Shin Yon", "TownEng": "North Oakkalapa", "RoadEng": "Khaymar Thi Rd", "Note": "2,15,16,64.1,92,137", "Latitude": 16.91127503694761, "Longitude": 96.16054267339108 }, { "No": 349, "RevNo": [234], "NameMm": "ဈဈေး", "TownMm": "မြောက်ဥက္ကလာပ", "RoadMm": "ခေမာသီလမ်း", "NameEng": "Za-Myin-Zaw Zay", "TownEng": "North Oakkalapa", "RoadEng": "Khaymar Thi Rd", "Note": "2,15,16,64.1,92,137", "Latitude": 16.911804, "Longitude": 96.162317 }, { "No": 350, "RevNo": [233], "NameMm": "ကန်သာယာလမ်းဆုံ", "TownMm": "မြောက်ဥက္ကလာပ", "RoadMm": "သုဓမ္မာလမ်း", "NameEng": "Kan Tharyar Lan Sone", "TownEng": "North Oakkalapa", "RoadEng": "Thudamma Rd", "Note": "2,16,18,19,32,35,36,42,64,64.1,66,92,93,115,116,119", "Latitude": 16.914102, "Longitude": 96.165084 }, { "No": 351, "RevNo": [232], "NameMm": "ဧရာ", "TownMm": "မြောက်ဥက္ကလာပ", "RoadMm": "သုဓမ္မာလမ်း", "NameEng": "AyeYar Gate", "TownEng": "North Oakkalapa", "RoadEng": "Thudamma Rd", "Note": "2,16,18,19,32,35,36,42,64,64.1,66,92,93,115,116,119", "Latitude": 16.9172911188644, "Longitude": 96.1636983037144 }, { "No": 352, "RevNo": [231,1267], "NameMm": "၆ကွေ့", "TownMm": "မြောက်ဥက္ကလာပ", "RoadMm": "သုဓမ္မာလမ်း", "NameEng": "6 Kwae", "TownEng": "North Oakkalapa", "RoadEng": "Thudamma Rd", "Note": "2,17,18,32,35,42,64,64.1,66,92,93,115,116,119,138", "Latitude": 16.91930552683934, "Longitude": 96.16285209507978 }, { "No": 353, "RevNo": [230], "NameMm": "ဓမ္မာရုံ", "TownMm": "မြောက်ဥက္ကလာပ", "RoadMm": "သုဓမ္မာလမ်း", "NameEng": "Dhama Yon", "TownEng": "North Oakkalapa", "RoadEng": "Thudamma Rd", "Note": "2,17,18,32,35,42,66,92,93,115,116,119,138", "Latitude": 16.92359082258501, "Longitude": 96.15887206757033 }, { "No": 354, "RevNo": [229], "NameMm": "အောင်မင်္ဂလာအဝေးပြေးထိပ်", "TownMm": "မြောက်ဥက္ကလာပ", "RoadMm": "သုဓမ္မာလမ်း", "NameEng": "Aung Mingalar A Way Paya Htate", "TownEng": "North Oakkalapa", "RoadEng": "Thudamma Rd", "Note": "2,11,17,18,32,35,42,66,92,93,115,116,119,136,138", "Latitude": 16.930538448347587, "Longitude": 96.15464359175282 }, { "No": 355, "RevNo": [228], "NameMm": "အောင်မင်္ဂလာအဝေးပြေး(ကားဝင်း)", "TownMm": "မြောက်ဥက္ကလာပ", "RoadMm": "အင်းဝလမ်း", "NameEng": "Aung Mingalar A Way Paya(Inside)", "TownEng": "North Oakkalapa", "RoadEng": "Inn Wa Rd", "Note": "2,11,115,119,136", "Latitude": 16.933856, "Longitude": 96.159093 }, { "No": 356, "RevNo": [446], "NameMm": "အဝိုင်းထိပ်(ကွန်တိန်နာဂိတ်)", "TownMm": "ဒဂုံဆိပ်ကမ်း", "RoadMm": "ကျွန်းရွှေဝါလမ်း", "NameEng": "Awine Htate(kwanteinnar Gate)", "TownEng": "Dagon Seikkan", "RoadEng": "Kyun Shwe War Rd", "Note": "3,110", "Latitude": 16.821158, "Longitude": 96.26632 }, { "No": 357, "RevNo": [445], "NameMm": "မြသီတာပန်းခြံ", "TownMm": "ဒဂုံဆိပ်ကမ်း", "RoadMm": "ကျွန်းရွှေဝါလမ်း", "NameEng": "Mya Thida Pan Chan", "TownEng": "Dagon Seikkan", "RoadEng": "Kyun Shwe War Rd", "Note": "3,5,60,110,133,133.1,144", "Latitude": 16.829196, "Longitude": 96.27086 }, { "No": 358, "RevNo": [444], "NameMm": "ယုဇနမုခ်ဦး", "TownMm": "ဒဂုံဆိပ်ကမ်း", "RoadMm": "ကျွန်းရွှေဝါလမ်း", "NameEng": "Yuzana Moak Oo", "TownEng": "Dagon Seikkan", "RoadEng": "Kyun Shwe War Rd", "Note": "3,5,60,110,133,133.1", "Latitude": 16.832314, "Longitude": 96.269806 }, { "No": 359, "RevNo": [443], "NameMm": "ဆီဆိုင်", "TownMm": "ဒဂုံဆိပ်ကမ်း", "RoadMm": "ပဲခူးမြစ်လမ်း", "NameEng": "Si Saing", "TownEng": "Dagon Seikkan", "RoadEng": "Bago River Rd", "Note": "3,6,60,110", "Latitude": 16.831878, "Longitude": 96.267086 }, { "No": 360, "RevNo": [442], "NameMm": "အိုးအိမ်", "TownMm": "ဒဂုံဆိပ်ကမ်း", "RoadMm": "ပဲခူးမြစ်လမ်း", "NameEng": "Oae Eain", "TownEng": "Dagon Seikkan", "RoadEng": "Bago River Rd", "Note": "3,4,6,60,110,133,133.1,144", "Latitude": 16.832467, "Longitude": 96.264897 }, { "No": 361, "RevNo": [441], "NameMm": "အောင်ချမ်းသာ", "TownMm": "ဒဂုံဆိပ်ကမ်း", "RoadMm": "ပဲခူးမြစ်လမ်း", "NameEng": "Aung Chan Thar", "TownEng": "Dagon Seikkan", "RoadEng": "Bago River Rd", "Note": "3,4,6,60,110,133,133.1,144", "Latitude": 16.833307, "Longitude": 96.261934 }, { "No": 362, "RevNo": [440], "NameMm": "မှတ်တိုင်သစ်", "TownMm": "ဒဂုံဆိပ်ကမ်း", "RoadMm": "ပဲခူးမြစ်လမ်း", "NameEng": "Hmat Taing Thit", "TownEng": "Dagon Seikkan", "RoadEng": "Bago River Rd", "Note": "3,4,6,60,110,133,133.1,144", "Latitude": 16.833972, "Longitude": 96.259651 }, { "No": 363, "RevNo": [439], "NameMm": "မြနန္ဒာ(အလယ်ဂိတ်)", "TownMm": "ဒဂုံဆိပ်ကမ်း", "RoadMm": "ပဲခူးမြစ်လမ်း", "NameEng": "Mya Nandar(A Lal Gate)", "TownEng": "Dagon Seikkan", "RoadEng": "Bago River Rd", "Note": "3,4,6,60,110,133,133.1,144", "Latitude": 16.835212, "Longitude": 96.254970 }, { "No": 364, "RevNo": [438], "NameMm": "ရတနာလမ်းဆုံ", "TownMm": "ဒဂုံဆိပ်ကမ်း", "RoadMm": "ပဲခူးမြစ်လမ်း", "NameEng": "Yadanar Lan Sone", "TownEng": "Dagon Seikkan", "RoadEng": "Bago River Rd", "Note": "3,4,6,60,80,110,133,133.1,144", "Latitude": 16.836569, "Longitude": 96.250100 }, { "No": 365, "RevNo": [437], "NameMm": "သိမ်ချောင်းလမ်းဆုံ", "TownMm": "တောင်ဒဂုံ", "RoadMm": "ဧရာဝဏ်ဆက်စပ်လမ်း", "NameEng": "Thein Kyaung Lan Sone", "TownEng": "South Dagon", "RoadEng": "Bago River Rd", "Note": "3,4,6,8,9.1,60,83,100,110,133,133.1,134,144", "Latitude": 16.838588, "Longitude": 96.244043 }, { "No": 366, "RevNo": [436], "NameMm": "အင်းဝအိမ်ရာ", "TownMm": "တောင်ဒဂုံ", "RoadMm": "ဧရာဝဏ်ဆက်စပ်လမ်း", "NameEng": "Inwa Eain Yar", "TownEng": "South Dagon", "RoadEng": "Ayer Wun Rd", "Note": "3,6,8,9.1,83,100,110,134", "Latitude": 16.840975, "Longitude": 96.244770 }, { "No": 367, "RevNo": [435], "NameMm": "အထူးဂိတ်", "TownMm": "တောင်ဒဂုံ", "RoadMm": "ဧရာဝဏ်ဆက်စပ်လမ်း", "NameEng": "A Htoo Gate", "TownEng": "South Dagon", "RoadEng": "Ayer Wun Rd", "Note": "3,6,8,9.1,100,110,134", "Latitude": 16.843512, "Longitude": 96.245553 }, { "No": 368, "RevNo": [434], "NameMm": "ပွိုင့်ထိပ်", "TownMm": "တောင်ဒဂုံ", "RoadMm": "ဧရာဝဏ်ဆက်စပ်လမ်း", "NameEng": "Point Htate", "TownEng": "South Dagon", "RoadEng": "Ayer Wun Rd", "Note": "3,6,8,9.1,100,110,134", "Latitude": 16.847506, "Longitude": 96.246838 }, { "No": 369, "RevNo": [433], "NameMm": "အဝေရာ", "TownMm": "တောင်ဒဂုံ", "RoadMm": "မောင်းမကန်ကမ်းသာလမ်း", "NameEng": "Awai Yar", "TownEng": "South Dagon", "RoadEng": "Maung Makan Kanthar Rd", "Note": "3,6,110", "Latitude": 16.850588, "Longitude": 96.244358 }, { "No": 370, "RevNo": [432], "NameMm": "ကွမ်းယာဆိုင်", "TownMm": "တောင်ဒဂုံ", "RoadMm": "မောင်းမကန်ကမ်းသာလမ်း", "NameEng": "Kyun Yar Sine", "TownEng": "South Dagon", "RoadEng": "Maung Makan Kanthar Rd", "Note": "3,6,110", "Latitude": 16.851896, "Longitude": 96.242725 },